~Version Information
 VERS.                  2.0:   CWLS log ASCII Standard -VERSION 2.0
 WRAP.                  YES:   Multiple lines per depth step
~Well Information Block
#MNEM.UNIT       Data Type    Information
#---------     -----------    ---------------------------
 STRT.M                19.6596:
 STOP.M              2365.8623:
 STEP.M                 0.1524:
 NULL.               -999.2500:
 WELL-NAME.             CASN-1:  COMMON WELL NAME
 COMPANY.            ECOPETROL:  WELL OPERATOR
 FIELD-NAME.    CASTILLA NORTE:  FIELD
 COUN.                 ACACIAS:  COUNTY
 STAT.                    META:  STATE
 UWI .                CASN0001:  UWI
 CWN .                  CASN-1:  COMMON WELL NAME
 WELL.        CASTILLA NORTE-1:  WELL NAME
 LSRV.              PETROWORKS:  LOG NAME
 PASI.                    NONE:  LOG PASS ID
 PAST.                 UNKNOWN:  LOG PASS TYPE
 LATI.DEG             3.873520:  LATITUDE
 LONG.DEG           -73.628010:  LONGITUDE
 TD  .M            2392.684814:  TOTAL DEPTH
 RUN .                      -1:  LOG RUN NO
~Parameter Information Block
#MNEM.UNIT       Value        Description
#---------     -----------    ---------------------------
~Curve Information Block
#MNEM.UNIT                 API CODE     Curve Description
#---------               -----------    ---------------------------
 DEPTH.M                00 000 000 000:  Index Curve
 RS  .OHMM              00 000 000 000:  Resistivity; shallow
 RD  .OHMM              00 000 000 000:  Resistivity; deep
~A 
# ...
  787.4524 
    6.4930     6.3570 
  787.6048 
    6.1790     6.0900 
  787.7572 
    5.9300     5.9440 
  787.9096 
    5.7090     5.8600 
  788.0620 
    5.5870     5.7650 
  788.2144 
    5.6220     5.4100 
  788.3668 
    5.6930     5.1000 
  788.5192 
    5.4820     4.8970 
  788.6716 
    5.1810     4.7160 
  788.8240 
    4.9580     4.5420 
  788.9764 
    4.8960     4.3740 
  789.1288 
    4.8700     4.2340 
  789.2812 
    4.7750     4.1360 
  789.4336 
    4.6680     4.0680 
  789.5860 
    4.5980     4.0370 
  789.7384 
    4.6340     4.0040 
  789.8908 
    4.6560     3.9490 
  790.0432 
    4.6380     3.8900 
  790.1956 
    4.5720     3.8340 
  790.3480 
    4.3600     3.7800 
  790.5004 
    4.1110     3.7280 
  790.6528 
    4.0810     3.6860 
  790.8052 
    4.1320     3.6440 
  790.9576 
    4.2670     3.5760 
  791.1100 
    4.3840     3.5910 
  791.2624 
    4.4330     3.6710 
  791.4148 
    4.4790     3.8270 
  791.5672 
    4.5380     4.1660 
  791.7196 
    4.6170     4.4310 
  791.8720 
    4.7150     4.6130 
  792.0244 
    4.8670     4.8000 
  792.1768 
    5.0110     4.9910 
  792.3292 
    5.1160     5.2050 
  792.4816 
    5.1570     5.3560 
  792.6340 
    5.1880     5.4480 
  792.7864 
    5.2130     5.4480 
  792.9388 
    5.1900     5.4110 
  793.0912 
    5.1540     5.3390 
  793.2436 
    5.1020     5.2470 
  793.3960 
    5.0460     5.1700 
  793.5484 
    4.9700     5.1070 
  793.7008 
    4.9270     5.0520 
  793.8532 
    4.9560     5.0680 
  794.0056 
    5.0300     5.1090 
  794.1580 
    5.1190     5.2220 
  794.3104 
    5.2240     5.3860 
  794.4628 
    5.4740     5.5870 
  794.6152 
    5.7650     6.0860 
  794.7676 
    6.1000     6.6030 
  794.9200 
    6.5530     7.3430 
  795.0724 
    6.9780     8.2410 
  795.2248 
    7.3890     8.8100 
  795.3772 
    7.6850     9.1260 
  795.5296 
    7.8540     9.2410 
  795.6820 
    7.8920     9.2930 
  795.8344 
    7.6590     9.1620 
  795.9868 
    7.2440     8.8670 
  796.1392 
    6.8740     8.2800 
  796.2916 
    6.6340     7.4020 
  796.4440 
    6.3710     6.4900 
  796.5964 
    6.0810     5.3740 
  796.7488 
    5.7290     4.2590 
  796.9012 
    5.0810     3.6300 
  797.0536 
    4.3720     3.2750 
  797.2060 
    3.8080     2.9910 
  797.3584 
    3.5380     2.7120 
  797.5108 
    3.4220     2.4680 
  797.6632 
    3.4320     2.3750 
  797.8156 
    3.4680     2.3620 
  797.9680 
    3.5160     2.4410 
  798.1204 
    3.5650     2.7140 
  798.2728 
    3.8430     3.0110 
  798.4252 
    4.7900     3.3960 
  798.5776 
    6.0350     4.0370 
  798.7300 
    7.0500     4.8430 
  798.8824 
    7.6450     5.6810 
  799.0348 
    8.1120     6.5370 
  799.1872 
    8.3300     7.4830 
  799.3396 
    8.4040     8.5950 
  799.4920 
    8.3910     9.6320 
  799.6444 
    8.3520     9.8950 
  799.7968 
    8.3140     9.7000 
  799.9492 
    8.2350     9.2060 
  800.1016 
    8.1060     8.4220 
  800.2540 
    7.8600     7.2300 
  800.4064 
    7.3350     6.0380 
  800.5588 
    6.3470     4.8470 
  800.7112 
    5.3890     4.0420 
  800.8636 
    4.6440     3.4470 
  801.0160 
    4.2010     3.0880 
  801.1684 
    3.9030     2.8170 
  801.3208 
    3.7450     2.6890 
  801.4732 
    3.6670     2.5750 
  801.6256 
    3.6670     2.5470 
  801.7780 
    3.9100     2.5850 
  801.9304 
    4.1230     2.7260 
  802.0828 
    4.3550     2.9440 
  802.2352 
    4.5770     3.2760 
  802.3876 
    5.0650     3.8190 
  802.5400 
    5.6500     4.4080 
  802.6924 
    6.3710     5.1700 
  802.8448 
    7.3880     6.1380 
  802.9972 
    8.7370     7.2870 
  803.1496 
   10.6040     8.6560 
  803.3020 
   12.0230    10.4480 
  803.4544 
   13.1010    13.5870 
  803.6068 
   14.0600    16.8060 
  803.7592 
   14.9920    19.4980 
  803.9116 
   15.6680    21.0710 
  804.0640 
   16.2480    22.1880 
  804.2164 
   16.6230    22.6780 
  804.3688 
   16.7740    22.2490 
  804.5212 
   16.8800    21.9390 
  804.6736 
   16.8110    21.6300 
  804.8260 
   16.7400    21.3210 
  804.9784 
   16.6730    21.0550 
  805.1308 
   16.6020    20.8340 
  805.2832 
   16.5640    20.7680 
  805.4356 
   16.9450    20.9120 
  805.5880 
   17.3110    21.3070 
  805.7404 
   17.7070    22.0600 
  805.8928 
   18.0870    22.9650 
  806.0452 
   18.3480    23.8940 
  806.1976 
   18.5980    24.9190 
  806.3500 
   18.8240    26.2030 
  806.5024 
   18.9010    27.3520 
  806.6548 
   18.8930    28.6120 
  806.8072 
   18.8180    29.3030 
  806.9596 
   18.7030    29.7620 
  807.1120 
   18.5480    29.8990 
  807.2644 
   18.3340    29.4720 
  807.4168 
   18.0450    28.5830 
  807.5692 
   17.6380    26.6400 
  807.7216 
   16.9480    23.2990 
  807.8740 
   15.8090    19.5300 
  808.0264 
   14.2720    16.1380 
  808.1788 
   12.5290    13.1870 
  808.3312 
   10.7970    10.5440 
  808.4836 
    9.2200     8.8160 
  808.6360 
    8.5750     7.7450 
  808.7884 
    8.0510     7.0080 
  808.9408 
    7.5410     6.3480 
  809.0932 
    7.1400     5.9860 
  809.2456 
    6.7880     6.0520 
  809.3980 
    6.8440     6.2160 
  809.5504 
    7.1920     6.5200 
  809.7028 
    7.9310     6.8710 
  809.8552 
    8.8950     7.3400 
  810.0076 
    9.9190     7.9510 
  810.1600 
   10.4710     8.8740 
  810.3124 
   11.1400    10.4410 
  810.4648 
   11.5780    12.1550 
  810.6172 
   11.9970    13.7450 
  810.7696 
   12.8240    15.0430 
  810.9220 
   13.8090    15.9510 
  811.0744 
   14.7530    16.8800 
  811.2268 
   15.4410    17.9450 
  811.3792 
   15.8790    19.0340 
  811.5316 
   16.1530    20.4270 
  811.6840 
   16.2540    21.1630 
  811.8364 
   16.3580    21.2970 
  811.9888 
   16.1800    20.1450 
  812.1412 
   15.9570    18.7380 
  812.2936 
   15.4950    17.0690 
  812.4460 
   14.4840    14.7030 
  812.5984 
   12.3910    12.5000 
  812.7508 
   10.0970    10.2960 
  812.9032 
    8.3120     8.0920 
  813.0556 
    6.9520     6.7180 
  813.2080 
    6.1710     5.8350 
  813.3604 
    5.8640     5.3280 
  813.5128 
    5.6320     4.9400 
  813.6652 
    5.4600     4.6430 
  813.8176 
    5.2790     4.4560 
  813.9700 
    5.2980     4.4000 
  814.1224 
    5.3690     4.4820 
  814.2748 
    5.4830     4.6570 
  814.4272 
    5.6040     4.8810 
  814.5796 
    5.7310     5.1480 
  814.7320 
    5.8580     5.5210 
  814.8844 
    6.0750     5.8740 
  815.0368 
    6.3060     6.2090 
  815.1892 
    6.4550     6.5430 
  815.3416 
    6.4310     6.6990 
  815.4940 
    6.2950     6.7450 
  815.6464 
    6.0780     6.6870 
  815.7988 
    5.8600     6.4380 
  815.9512 
    5.6410     6.0920 
  816.1036 
    5.4470     5.7380 
  816.2560 
    5.2590     5.3590 
  816.4084 
    5.0840     4.9270 
  816.5608 
    5.0160     4.7510 
  816.7132 
    4.9510     4.5960 
  816.8656 
    4.8920     4.4850 
  817.0180 
    4.8650     4.3730 
  817.1704 
    4.8810     4.3450 
  817.3228 
    4.9000     4.4190 
  817.4752 
    4.9200     4.5600 
  817.6276 
    4.9650     4.7070 
  817.7800 
    5.0280     4.8740 
  817.9324 
    5.1110     5.0680 
  818.0848 
    5.2530     5.3030 
  818.2372 
    5.4480     5.5870 
  818.3896 
    5.6280     5.8370 
  818.5420 
    5.7600     6.0680 
  818.6944 
    5.8380     6.2550 
  818.8468 
    5.8200     6.2550 
  818.9992 
    5.8010     6.1630 
  819.1516 
    5.5200     5.9890 
  819.3040 
    5.2460     5.7330 
  819.4564 
    5.0840     5.4730 
  819.6088 
    4.9560     5.2490 
  819.7612 
    4.8590     5.0540 
  819.9136 
    4.8050     4.9910 
  820.0660 
    4.8270     4.9580 
  820.2184 
    4.8650     5.0180 
  820.3708 
    4.9120     5.0590 
  820.5232 
    4.9580     5.0750 
  820.6756 
    4.9420     5.0840 
  820.8280 
    4.9270     5.0640 
  820.9804 
    4.9030     5.0470 
  821.1328 
    4.8790     5.0200 
  821.2852 
    4.8550     4.9920 
  821.4376 
    4.8310     4.9650 
  821.5900 
    4.8050     4.9390 
  821.7424 
    4.8150     4.9270 
  821.8948 
    4.8270     4.9270 
  822.0472 
    4.8520     4.9430 
  822.1996 
    4.9000     4.9870 
