~Version Information
 VERS.                  2.0:   CWLS log ASCII Standard -VERSION 2.0
 WRAP.                  YES:   Multiple lines per depth step
~Well Information Block
#MNEM.UNIT       Data Type    Information
#---------     -----------    ---------------------------
 STRT.M                19.6596:
 STOP.M              2365.8623:
 STEP.M                 0.1524:
 NULL.               -999.2500:
 WELL-NAME.             CASN-1:  COMMON WELL NAME
 COMPANY.            ECOPETROL:  WELL OPERATOR
 FIELD-NAME.    CASTILLA NORTE:  FIELD
 COUN.                 ACACIAS:  COUNTY
 STAT.                    META:  STATE
 UWI .                CASN0001:  UWI
 CWN .                  CASN-1:  COMMON WELL NAME
 WELL.        CASTILLA NORTE-1:  WELL NAME
 LSRV.              PETROWORKS:  LOG NAME
 PASI.                    NONE:  LOG PASS ID
 PAST.                 UNKNOWN:  LOG PASS TYPE
 LATI.DEG             3.873520:  LATITUDE
 LONG.DEG           -73.628010:  LONGITUDE
 TD  .M            2392.684814:  TOTAL DEPTH
 RUN .                      -1:  LOG RUN NO
~Parameter Information Block
#MNEM.UNIT       Value        Description
#---------     -----------    ---------------------------
~Curve Information Block
#MNEM.UNIT                 API CODE     Curve Description
#---------               -----------    ---------------------------
 DEPTH.M                00 000 000 000:  Index Curve
 RS  .OHMM              00 000 000 000:  Resistivity; shallow
 RD  .OHMM              00 000 000 000:  Resistivity; deep
~A 
# ...
 1555.2451 
    4.3330     4.2500 
 1555.3975 
    4.3520     4.2850 
 1555.5499 
    4.3730     4.3190 
 1555.7023 
    4.3730     4.3380 
 1555.8547 
    4.3730     4.3570 
 1556.0071 
    4.3780     4.3830 
 1556.1595 
    4.3930     4.4300 
 1556.3119 
    4.4280     4.4770 
 1556.4643 
    4.4760     4.5450 
 1556.6167 
    4.6080     4.6700 
 1556.7691 
    4.7570     4.7940 
 1556.9215 
    4.9140     4.9350 
 1557.0739 
    5.0710     5.0980 
 1557.2263 
    5.2380     5.2610 
 1557.3787 
    5.3940     5.4180 
 1557.5311 
    5.4920     5.5690 
 1557.6835 
    5.5520     5.7290 
 1557.8359 
    5.5170     5.7850 
 1557.9883 
    5.3820     5.8450 
 1558.1407 
    5.2740     5.8740 
 1558.2931 
    5.2130     5.8520 
 1558.4455 
    5.2640     5.8380 
 1558.5979 
    5.4520     5.8710 
 1558.7503 
    5.6930     5.9030 
 1558.9027 
    5.9420     5.9670 
 1559.0551 
    6.1430     6.0440 
 1559.2075 
    6.3740     6.1000 
 1559.3599 
    6.2950     6.0660 
 1559.5123 
    6.0280     5.8350 
 1559.6647 
    5.6570     5.5380 
 1559.8171 
    5.2730     5.2110 
 1559.9695 
    4.9440     4.8500 
 1560.1219 
    4.6680     4.5270 
 1560.2743 
    4.3910     4.2330 
 1560.4267 
    4.1960     3.9730 
 1560.5791 
    4.0040     3.7840 
 1560.7315 
    3.8060     3.6190 
 1560.8839 
    3.6210     3.4760 
 1561.0363 
    3.4620     3.3510 
 1561.1887 
    3.3410     3.2370 
 1561.3411 
    3.2960     3.1230 
 1561.4935 
    3.3910     3.0090 
 1561.6459 
    3.4660     2.9170 
 1561.7983 
    3.4160     2.8550 
 1561.9507 
    3.3570     2.7970 
 1562.1031 
    3.3120     2.7810 
 1562.2555 
    3.2960     2.7640 
 1562.4079 
    3.3020     2.8110 
 1562.5603 
    3.3210     2.8630 
 1562.7127 
    3.3550     2.9460 
 1562.8651 
    3.4660     3.0480 
 1563.0175 
    3.6050     3.2650 
 1563.1699 
    3.7610     3.4640 
 1563.3223 
    3.9250     3.6360 
 1563.4747 
    4.0490     3.8080 
 1563.6271 
    4.1260     3.8990 
 1563.7795 
    4.1580     3.9540 
 1563.9319 
    4.1320     3.9180 
 1564.0843 
    4.0430     3.8190 
 1564.2367 
    3.8560     3.6210 
 1564.3891 
    3.6990     3.3430 
 1564.5415 
    3.5190     3.0970 
 1564.6939 
    3.3630     2.9120 
 1564.8463 
    3.2960     2.8080 
 1564.9987 
    3.2490     2.7330 
 1565.1511 
    3.2340     2.6790 
 1565.3035 
    3.2340     2.6990 
 1565.4559 
    3.2680     2.7300 
 1565.6083 
    3.3290     2.8380 
 1565.7607 
    3.4050     2.9640 
 1565.9131 
    3.4910     3.1260 
 1566.0655 
    3.5910     3.3060 
 1566.2179 
    3.7440     3.4970 
 1566.3703 
    3.9080     3.7050 
 1566.5227 
    4.0900     3.9180 
 1566.6751 
    4.3090     4.1630 
 1566.8275 
    4.5260     4.4100 
 1566.9799 
    4.7100     4.5760 
 1567.1323 
    4.8130     4.6790 
 1567.2847 
    4.8350     4.7150 
 1567.4371 
    4.7570     4.6360 
 1567.5895 
    4.6420     4.4270 
 1567.7419 
    4.5370     4.1510 
 1567.8943 
    4.5120     3.7950 
 1568.0467 
    4.2970     3.3350 
 1568.1991 
    3.8980     2.8940 
 1568.3515 
    3.4680     2.5790 
 1568.5039 
    3.0940     2.3920 
 1568.6563 
    2.8070     2.2070 
 1568.8087 
    2.6790     2.1020 
 1568.9611 
    2.6290     2.0500 
 1569.1135 
    2.6640     2.0320 
 1569.2659 
    2.7790     2.0450 
 1569.4183 
    2.9830     2.0690 
 1569.5707 
    3.2260     2.2310 
 1569.7231 
    3.4360     2.4680 
 1569.8755 
    3.6380     2.7810 
 1570.0279 
    3.8650     3.1180 
 1570.1803 
    4.1580     3.4890 
 1570.3327 
    4.5460     3.8900 
 1570.4851 
    4.9490     4.3580 
 1570.6375 
    5.3320     4.7590 
 1570.7899 
    5.5870     4.9890 
 1570.9423 
    5.4480     4.9160 
 1571.0947 
    5.0290     4.7070 
 1571.2471 
    4.5670     4.4470 
 1571.3995 
    4.2930     4.1590 
 1571.5519 
    4.0780     3.8800 
 1571.7043 
    3.9050     3.7000 
 1571.8567 
    3.9190     3.6120 
 1572.0091 
    4.0010     3.5990 
 1572.1615 
    4.1680     3.6830 
 1572.3139 
    4.4250     3.9560 
 1572.4663 
    4.7600     4.2870 
 1572.6187 
    5.1120     4.6190 
 1572.7711 
    5.3710     4.9650 
 1572.9235 
    5.5980     5.3160 
 1573.0759 
    5.8200     5.5940 
 1573.2283 
    5.9960     5.8160 
 1573.3807 
    6.0520     5.9040 
 1573.5331 
    6.0860     5.9490 
 1573.6855 
    6.1000     5.9040 
 1573.8379 
    6.0340     5.8600 
 1573.9903 
    5.8740     5.7090 
 1574.1427 
    5.6930     5.4720 
 1574.2951 
    5.3980     5.2560 
 1574.4475 
    5.1260     5.0540 
 1574.5999 
    4.9780     4.8990 
 1574.7523 
    4.8920     4.7450 
 1574.9047 
    4.8350     4.6570 
 1575.0572 
    4.8350     4.5690 
 1575.2096 
    4.8610     4.6280 
 1575.3620 
    4.9180     4.7240 
 1575.5144 
    5.0480     4.8590 
 1575.6668 
    5.1980     5.0250 
 1575.8192 
    5.3790     5.2130 
 1575.9716 
    5.6170     5.3930 
 1576.1240 
    5.8250     5.5630 
 1576.2764 
    5.9490     5.6220 
 1576.4288 
    5.9180     5.1360 
 1576.5812 
    5.6860     4.4540 
 1576.7336 
    5.1860     3.7740 
 1576.8860 
    4.5490     3.0940 
 1577.0384 
    3.8300     2.5960 
 1577.1908 
    3.1610     2.1100 
 1577.3432 
    2.6790     1.9080 
 1577.4956 
    2.5310     1.7020 
 1577.6480 
    2.4620     1.5630 
 1577.8004 
    2.4220     1.4730 
 1577.9528 
    2.4380     1.4290 
 1578.1052 
    2.4070     1.4290 
 1578.2576 
    2.4310     1.4930 
 1578.4100 
    2.5050     1.6100 
 1578.5624 
    2.6440     1.7580 
 1578.7148 
    2.9320     1.9320 
 1578.8672 
    3.3440     2.1100 
 1579.0196 
    3.8230     2.4510 
 1579.1720 
    4.2560     2.8470 
 1579.3244 
    4.5400     3.3330 
 1579.4768 
    4.7500     3.8260 
 1579.6292 
    4.8760     4.3630 
 1579.7816 
    4.9100     4.7040 
 1579.9340 
    4.9580     4.9350 
 1580.0864 
    5.0330     5.0770 
 1580.2388 
    5.0970     5.1480 
 1580.3912 
    5.1510     5.1310 
 1580.5436 
    5.1660     5.1190 
 1580.6960 
    5.1810     5.1010 
 1580.8484 
    5.1470     5.0790 
 1581.0008 
    5.1160     5.0580 
 1581.1532 
    5.1160     5.0440 
 1581.3056 
    5.1160     5.0330 
 1581.4580 
    5.0990     5.0220 
 1581.6104 
    5.0840     4.9650 
 1581.7628 
    5.0610     4.8990 
 1581.9152 
    5.0390     4.7430 
 1582.0676 
    4.9980     4.4990 
 1582.2200 
    4.7980     4.1810 
 1582.3724 
    4.4300     3.8630 
 1582.5248 
    4.0460     3.4210 
 1582.6772 
    3.6660     3.0680 
 1582.8296 
    3.3380     2.7800 
 1582.9820 
    3.0970     2.6300 
 1583.1344 
    2.9810     2.5030 
 1583.2868 
    2.9430     2.3920 
 1583.4392 
    2.9250     2.3990 
 1583.5916 
    2.9580     2.4230 
 1583.7440 
    3.1470     2.4970 
 1583.8964 
    3.3520     2.5970 
 1584.0488 
    3.4950     2.7170 
 1584.2012 
    3.5760     2.8470 
 1584.3536 
    3.6350     2.9800 
 1584.5060 
    3.6670     3.1080 
 1584.6584 
    3.6700     3.2350 
 1584.8108 
    3.7140     3.3590 
 1584.9632 
    3.7540     3.4840 
 1585.1156 
    3.7960     3.5720 
 1585.2680 
    3.8370     3.6380 
 1585.4204 
    3.8640     3.6970 
 1585.5728 
    3.8780     3.7260 
 1585.7252 
    3.8920     3.7550 
 1585.8776 
    3.9050     3.7850 
 1586.0300 
    3.9750     3.8140 
 1586.1824 
    4.0420     3.8690 
 1586.3348 
    4.1390     3.9590 
 1586.4872 
    4.2640     4.0800 
 1586.6396 
    4.4750     4.3090 
 1586.7920 
    4.8340     4.6090 
 1586.9444 
    5.3110     5.0350 
 1587.0968 
    5.8700     5.5360 
 1587.2492 
    6.4670     6.1140 
 1587.4016 
    6.7880     6.3340 
 1587.5540 
    6.6610     5.8380 
 1587.7064 
    6.1600     5.1220 
 1587.8588 
    5.4820     4.4100 
 1588.0112 
    4.6070     3.7370 
 1588.1636 
    3.9930     3.2700 
 1588.3160 
    3.5750     2.9250 
 1588.4684 
    3.2880     2.7360 
 1588.6208 
    3.1370     2.5890 
 1588.7732 
    3.0950     2.5030 
 1588.9256 
    3.2670     2.4840 
 1589.0780 
    3.5320     2.6200 
 1589.2304 
    3.9330     2.8520 
 1589.3828 
    4.4280     3.1550 
 1589.5352 
    4.9110     3.5320 
 1589.6876 
    5.2990     4.0620 
 1589.8400 
    5.5760     4.7690 
 1589.9924 
    5.8010     5.4820 
