~Version Information
 VERS.                  2.0:   CWLS log ASCII Standard -VERSION 2.0
 WRAP.                  YES:   Multiple lines per depth step
~Well Information Block
#MNEM.UNIT       Data Type    Information
#---------     -----------    ---------------------------
 STRT.M                19.6596:
 STOP.M              2365.8623:
 STEP.M                 0.1524:
 NULL.               -999.2500:
 WELL-NAME.             CASN-1:  COMMON WELL NAME
 COMPANY.            ECOPETROL:  WELL OPERATOR
 FIELD-NAME.    CASTILLA NORTE:  FIELD
 COUN.                 ACACIAS:  COUNTY
 STAT.                    META:  STATE
 UWI .                CASN0001:  UWI
 CWN .                  CASN-1:  COMMON WELL NAME
 WELL.        CASTILLA NORTE-1:  WELL NAME
 LSRV.              PETROWORKS:  LOG NAME
 PASI.                    NONE:  LOG PASS ID
 PAST.                 UNKNOWN:  LOG PASS TYPE
 LATI.DEG             3.873520:  LATITUDE
 LONG.DEG           -73.628010:  LONGITUDE
 TD  .M            2392.684814:  TOTAL DEPTH
 RUN .                      -1:  LOG RUN NO
~Parameter Information Block
#MNEM.UNIT       Value        Description
#---------     -----------    ---------------------------
~Curve Information Block
#MNEM.UNIT                 API CODE     Curve Description
#---------               -----------    ---------------------------
 DEPTH.M                00 000 000 000:  Index Curve
 RS  .OHMM              00 000 000 000:  Resistivity; shallow
 RD  .OHMM              00 000 000 000:  Resistivity; deep
~A 
   19.6596 
    4.6900    12.8210 
   19.8120 
    7.1850     5.7520 
   19.9644 
    9.7540     4.5630 
   20.1168 
   12.4290     6.2700 
   20.2692 
   15.1680    12.7880 
   20.4216 
   17.9360    33.8200 
   20.5740 
   20.7440    66.0050 
   20.7264 
   23.5270    80.6940 
   20.8788 
   26.2780    57.3240 
   21.0312 
   29.0300    51.3380 
   21.1836 
   31.8990    50.6880 
   21.3360 
   34.8940    52.7760 
   21.4884 
   38.0560    56.8190 
   21.6408 
   39.3680    66.3490 
   21.7932 
   40.7570    83.5060 
   21.9456 
   42.4970   116.7570 
   22.0980 
   44.7900   117.5030 
   22.2504 
   47.0820   103.4480 
   22.4028 
   49.3750   107.8220 
   22.5552 
   51.6680   146.5680 
   22.7076 
   53.9600   191.8220 
   22.8600 
   56.1260   230.5050 
   23.0124 
   58.7990   288.0930 
   23.1648 
   61.3310   341.7260 
   23.3172 
   63.8640   395.3580 
   23.4696 
   66.3960   414.7300 
   23.6220 
   68.5170   414.7300 
   23.7744 
   69.2550   251.0780 
   23.9268 
   69.2550   185.8740 
   24.0792 
   69.5310   142.2450 
   24.2316 
   71.1870   145.9150 
   24.3840 
   72.8440   199.3640 
   24.5364 
   74.5000   283.4860 
   24.6888 
   76.1570   431.9190 
   24.8412 
   77.7510   515.0130 
   24.9936 
   78.6990   476.8720 
   25.1461 
   79.6470   367.4470 
   25.2985 
   80.5940   258.0230 
   25.4509 
   81.5420   205.8160 
   25.6033 
   82.2820   214.3950 
   25.7557 
   82.4080   229.1260 
   25.9081 
   82.5340   244.4370 
   26.0605 
   82.6600   238.2880 
   26.2129 
   82.7760   212.3330 
   26.3653 
   81.3770   191.7190 
   26.5177 
   79.9290   178.9040 
   26.6701 
   78.4820   182.3560 
   26.8225 
   76.2910   185.8740 
   26.9749 
   73.8910   184.6940 
   27.1273 
   71.4900   168.9430 
   27.2797 
   67.6250   147.3400 
   27.4321 
   63.4230   120.2870 
   27.5845 
   59.0600    92.8500 
   27.7369 
   53.8400    70.4500 
   27.8893 
   48.4130    59.4710 
   28.0417 
   42.9850    48.4930 
   28.1941 
   37.9020    37.8140 
   28.3465 
   35.0000    34.1710 
   28.4989 
   34.0680    30.4510 
   28.6513 
   33.2740    27.7860 
   28.8037 
   32.4800    25.8910 
   28.9561 
   31.6870    24.7990 
   29.1085 
   30.8930    23.7070 
   29.2609 
   30.5580    22.8200 
   29.4133 
   30.4400    22.2970 
   29.5657 
   30.3690    21.8420 
   29.7181 
   30.2990    21.7090 
   29.8705 
   30.2280    21.5890 
   30.0229 
   30.1580    21.8590 
   30.1753 
   30.0700    22.1050 
   30.3277 
   30.2360    22.5030 
   30.4801 
   30.4800    23.3410 
   30.6325 
   30.7250    24.8000 
   30.7849 
   31.5110    26.8600 
   30.9373 
   32.7870    29.5150 
   31.0897 
   34.0630    32.9510 
   31.2421 
   35.3390    36.3880 
   31.3945 
   36.6150    39.8250 
   31.5469 
   37.8760    43.8450 
   31.6993 
   38.9060    50.7270 
   31.8517 
   39.9360    56.1360 
   32.0041 
   40.9660    59.5140 
   32.1565 
   43.1190    62.6570 
   32.3089 
   45.4110    65.5140 
   32.4613 
   47.7020    68.3720 
   32.6137 
   49.9930    71.4870 
   32.7661 
   52.2840    78.2690 
   32.9185 
   54.5750    85.0520 
   33.0709 
   56.8660    91.8350 
   33.2233 
   59.1570    99.5480 
   33.3757 
   61.3610   107.7030 
   33.5281 
   66.3160   121.5000 
   33.6805 
   71.0890   139.0410 
   33.8329 
   75.8620   156.5820 
   33.9853 
   80.3150   172.9490 
   34.1377 
   84.0480   187.6790 
   34.2901 
   87.4490   194.3490 
   34.4425 
   90.1750   191.2510 
   34.5949 
   92.9000   185.7240 
   34.7473 
   95.6260   180.1960 
   34.8997 
   97.2480   174.6690 
   35.0521 
   98.7770   169.1410 
   35.2045 
  100.2000   163.6140 
   35.3569 
  100.1210   158.5120 
   35.5093 
  100.0420   160.5440 
   35.6617 
   99.9620   166.4170 
   35.8141 
   99.8830   171.1030 
   35.9665 
   99.8040   170.0160 
   36.1189 
   99.7240   165.2510 
   36.2713 
   99.6450   160.5370 
   36.4237 
   99.5690   155.6310 
   36.5761 
  100.9140   157.5050 
   36.7285 
  102.2020   165.1080 
   36.8809 
  103.4480   173.1370 
   37.0333 
  103.4480   181.1670 
   37.1857 
  103.4480   188.6600 
   37.3381 
  103.4480   192.1070 
   37.4905 
  103.4480   195.5910 
   37.6429 
  103.4480   196.4850 
   37.7953 
  103.4480   199.3640 
   37.9477 
  103.4480   198.5380 
   38.1001 
  103.4480   194.5060 
   38.2525 
  102.3400   184.8580 
   38.4049 
  100.8300   175.5180 
   38.5573 
   99.3210   169.6370 
   38.7097 
   97.2270   163.9390 
   38.8621 
   93.9480   158.2400 
   39.0145 
   90.7590   153.3550 
   39.1669 
   87.5870   149.2180 
   39.3193 
   83.8300   145.0800 
   39.4717 
   79.4900   139.3520 
   39.6241 
   75.1500   133.1090 
   39.7765 
   70.8090   126.8650 
   39.9289 
   66.5500   120.6220 
   40.0813 
   62.3590   114.5470 
   40.2337 
   57.9420    99.2520 
   40.3861 
   52.7790    81.2860 
   40.5385 
   47.3210    65.2580 
   40.6909 
   41.7840    55.6380 
   40.8433 
   36.1030    46.0180 
   40.9957 
   30.4210    36.3970 
   41.1481 
   25.4500    26.7770 
   41.3005 
   23.0540    18.9940 
   41.4529 
   20.9340    16.9290 
   41.6053 
   20.2430    15.1990 
   41.7577 
   19.7450    13.9620 
   41.9101 
   19.3510    13.1200 
   42.0625 
   18.7660    12.6220 
   42.2149 
   18.7850    12.4920 
   42.3673 
   18.8240    12.4040 
   42.5197 
   18.8620    12.5340 
   42.6721 
   18.8860    12.8510 
   42.8245 
   18.6680    13.2610 
   42.9769 
   18.5100    13.6710 
   43.1293 
   18.3520    14.0000 
   43.2817 
   18.1950    13.7890 
   43.4341 
   18.0370    13.4490 
   43.5865 
   17.8790    13.1100 
   43.7389 
   17.7210    12.7700 
   43.8913 
   17.5630    12.4300 
   44.0437 
   17.4050    12.0910 
   44.1961 
   17.2480    11.7510 
   44.3485 
   17.0900    11.4110 
   44.5009 
   16.9320    11.0600 
   44.6533 
   16.8400    11.3030 
   44.8057 
   16.9510    11.6730 
   44.9581 
   17.0300    12.2500 
   45.1105 
   17.4360    13.1920 
   45.2629 
   18.0030    14.6100 
   45.4153 
   18.8530    16.4010 
   45.5677 
   19.8280    18.5950 
   45.7201 
   21.5690    21.9130 
   45.8725 
   23.4740    25.2310 
   46.0249 
   25.3780    29.6270 
   46.1773 
   27.2820    35.7070 
   46.3297 
   29.1860    44.6080 
   46.4821 
   31.0390    53.5580 
   46.6345 
   34.3910    62.5070 
   46.7869 
   37.8140    71.4570 
   46.9393 
   39.4360    78.2560 
   47.0917 
   41.1420    84.6510 
   47.2441 
   42.8480    87.6600 
   47.3965 
   43.8800    87.6600 
   47.5489 
   44.1010    83.8370 
   47.7013 
   44.3220    80.9420 
   47.8537 
   44.6250    77.8080 
   48.0061 
   44.2780    74.6730 
   48.1585 
   43.6720    71.5390 
   48.3109 
   42.5750    68.4040 
   48.4633 
   41.4770    65.2690 
   48.6157 
   40.3010    62.1350 
   48.7681 
   40.3200    60.1620 
   48.9205 
   40.3410    60.0640 
   49.0729 
   40.3620    59.9670 
   49.2253 
   40.3830    59.8170 
   49.3777 
   40.4040    60.2200 
   49.5301 
   40.4240    61.0820 
   49.6825 
   40.4450    61.9430 
   49.8349 
   40.4660    62.8050 
   49.9873 
   40.4870    63.6670 
   50.1397 
   40.5070    63.8390 
   50.2921 
   40.5280    63.9490 
   50.4445 
   40.5590    64.0590 
   50.5969 
   40.5060    64.1580 
   50.7493 
   40.4060    65.7840 
   50.9017 
   40.3070    67.4280 
   51.0541 
   40.2070    69.6970 
   51.2065 
   40.1080    69.5500 
   51.3589 
   40.0080    69.3130 
   51.5113 
   39.9090    69.0760 
   51.6637 
   39.8090    68.8390 
   51.8161 
   39.7100    68.6020 
   51.9685 
   39.6100    68.3780 
   52.1209 
   39.3180    66.8040 
   52.2733 
   38.5250    65.3960 
   52.4257 
   37.7320    60.0100 
   52.5781 
   36.7000    56.2100 
   52.7305 
   35.4300    52.2640 
   52.8829 
   34.1590    48.3170 
   53.0353 
   32.8890    44.3710 
   53.1877 
   31.6180    40.4250 
   53.3401 
   30.3470    36.4790 
   53.4925 
   29.0770    32.5330 
   53.6449 
   27.8060    29.9110 
   53.7973 
   26.5360    27.7990 
   53.9497 
   25.3740    25.8040 
   54.1021 
   24.7530    25.0190 
   54.2545 
   24.1320    24.2760 
   54.4069 
   23.6660    23.8590 
