~Version Information
 VERS.                  2.0:   CWLS log ASCII Standard -VERSION 2.0
 WRAP.                  YES:   Multiple lines per depth step
~Well Information Block
#MNEM.UNIT       Data Type    Information
#---------     -----------    ---------------------------
 STRT.M                19.6596:
 STOP.M              2365.8623:
 STEP.M                 0.1524:
 NULL.               -999.2500:
 WELL-NAME.             CASN-1:  COMMON WELL NAME
 COMPANY.            ECOPETROL:  WELL OPERATOR
 FIELD-NAME.    CASTILLA NORTE:  FIELD
 COUN.                 ACACIAS:  COUNTY
 STAT.                    META:  STATE
 UWI .                CASN0001:  UWI
 CWN .                  CASN-1:  COMMON WELL NAME
 WELL.        CASTILLA NORTE-1:  WELL NAME
 LSRV.              PETROWORKS:  LOG NAME
 PASI.                    NONE:  LOG PASS ID
 PAST.                 UNKNOWN:  LOG PASS TYPE
 LATI.DEG             3.873520:  LATITUDE
 LONG.DEG           -73.628010:  LONGITUDE
 TD  .M            2392.684814:  TOTAL DEPTH
 RUN .                      -1:  LOG RUN NO
~Parameter Information Block
#MNEM.UNIT       Value        Description
#---------     -----------    ---------------------------
~Curve Information Block
#MNEM.UNIT                 API CODE     Curve Description
#---------               -----------    ---------------------------
 DEPTH.M                00 000 000 000:  Index Curve
 RS  .OHMM              00 000 000 000:  Resistivity; shallow
 RD  .OHMM              00 000 000 000:  Resistivity; deep
~A 
# ...
 2008.9408 
   30.7210    31.3000 
 2009.0932 
   31.0150    31.8320 
 2009.2456 
   30.6310    32.3640 
 2009.3980 
   30.8170    32.8960 
 2009.5504 
   31.0660    33.4280 
 2009.7028 
   31.3700    33.9590 
 2009.8552 
   31.7970    34.2620 
 2010.0076 
   31.5040    33.2670 
 2010.1600 
   31.2090    32.5980 
 2010.3124 
   31.5780    32.3960 
 2010.4648 
   32.1010    33.0300 
 2010.6172 
   33.4140    34.8920 
 2010.7696 
   34.3150    36.7540 
 2010.9220 
   34.4760    37.3810 
 2011.0744 
   33.1570    35.5660 
 2011.2268 
   29.8740    30.9410 
 2011.3792 
   26.5900    26.7490 
 2011.5316 
   23.3070    22.5560 
 2011.6840 
   20.4610    21.5510 
 2011.8364 
   19.9160    20.6960 
 2011.9888 
   19.8030    20.5680 
 2012.1412 
   19.6890    20.5680 
 2012.2936 
   19.5690    19.8140 
 2012.4460 
   19.2250    19.0880 
 2012.5984 
   18.8620    18.8520 
 2012.7508 
   18.4980    19.0880 
 2012.9032 
   18.1350    20.0000 
 2013.0556 
   17.7720    20.3140 
 2013.2080 
   17.6050    20.3140 
 2013.3604 
   17.6050    20.3140 
 2013.5128 
   17.6050    20.9370 
 2013.6652 
   18.3150    21.5440 
 2013.8176 
   18.9890    22.1630 
 2013.9700 
   19.2070    22.1630 
 2014.1224 
   18.9110    21.3270 
 2014.2748 
   18.3160    20.0620 
 2014.4272 
   17.2160    17.2790 
 2014.5796 
   16.0360    16.7500 
 2014.7320 
   15.8370    16.5420 
 2014.8844 
   16.4230    16.9090 
 2015.0368 
   18.1000    17.9420 
 2015.1892 
   19.7770    19.8760 
 2015.3416 
   21.4540    21.8100 
 2015.4940 
   23.1310    23.5560 
 2015.6464 
   24.0800    24.7690 
 2015.7988 
   24.6290    25.2660 
 2015.9512 
   25.1000    25.3610 
 2016.1036 
   25.1000    25.4150 
 2016.2560 
   24.8120    24.4920 
 2016.4084 
   23.5650    23.1870 
 2016.5608 
   21.0330    21.8830 
 2016.7132 
   18.1050    18.8280 
 2016.8656 
   15.1770    15.5800 
 2017.0180 
   12.8970    12.8170 
 2017.1704 
   12.5800    12.5800 
 2017.3228 
   14.0050    13.4710 
 2017.4752 
   34.2920    28.3870 
 2017.6276 
   55.9830    44.0910 
 2017.7800 
   77.6740    67.8460 
 2017.9324 
  100.5890    99.7400 
 2018.0848 
  124.5540   128.7090 
 2018.2372 
  146.0640   146.0640 
 2018.3896 
  146.9760   146.0640 
 2018.5420 
  119.6870   122.5810 
 2018.6944 
   92.8630   101.0590 
 2018.8468 
   74.5310    79.5370 
 2018.9992 
   56.1990    58.0150 
 2019.1516 
   37.8670    36.4930 
 2019.3040 
   23.1500    23.5860 
 2019.4564 
   23.0060    22.8630 
 2019.6088 
   28.3980    27.2260 
 2019.7612 
   33.6090    33.1630 
 2019.9136 
   38.8210    39.0990 
 2020.0660 
   44.0330    45.0350 
 2020.2184 
   48.1930    49.4620 
 2020.3708 
   50.0820    49.7710 
 2020.5232 
   49.8350    49.1550 
 2020.6756 
   47.5250    46.1900 
 2020.8280 
   40.4040    40.9750 
 2020.9804 
   32.1720    34.2630 
 2021.1328 
   23.9400    27.5510 
 2021.2852 
   16.7150    20.8400 
 2021.4376 
   10.5070    14.1280 
 2021.5900 
    8.5910     8.6060 
 2021.7424 
    8.1200     8.3620 
 2021.8948 
    7.8530     7.9360 
 2022.0472 
    7.5870     7.5050 
 2022.1996 
    7.3200     7.2550 
 2022.3520 
    7.0950     7.0030 
 2022.5044 
    6.8910     6.7520 
 2022.6568 
    6.6870     6.6170 
 2022.8092 
    6.4830     6.4660 
 2022.9616 
    6.3070     6.3160 
 2023.1140 
    6.1090     6.1650 
 2023.2664 
    5.9110     6.0280 
 2023.4188 
    5.7380     5.9740 
 2023.5712 
    5.7070     5.9200 
 2023.7236 
    5.6760     5.8660 
 2023.8760 
    5.6370     5.8120 
 2024.0284 
    5.6580     5.7570 
 2024.1808 
    5.7570     5.7430 
 2024.3332 
    5.9220     5.7790 
 2024.4856 
    6.5550     6.0740 
 2024.6380 
    9.8690     9.1870 
 2024.7904 
   13.1840    13.0350 
 2024.9428 
   16.4980    16.8840 
 2025.0953 
   19.8130    20.7320 
 2025.2477 
   23.5560    24.5800 
 2025.4001 
   28.0200    29.6950 
 2025.5525 
   32.9140    35.9090 
 2025.7049 
   38.8840    41.6280 
 2025.8573 
   44.3210    46.6810 
 2026.0097 
   47.3390    52.8780 
 2026.1621 
   49.4480    56.7200 
 2026.3145 
   50.7750    57.4300 
 2026.4669 
   51.0250    57.4300 
 2026.6193 
   49.9490    56.3680 
 2026.7717 
   48.5030    52.9670 
 2026.9241 
   46.9450    52.3820 
 2027.0765 
   45.3350    51.3440 
 2027.2289 
   45.9690    50.0820 
 2027.3813 
   47.6970    50.0820 
 2027.5337 
   49.4620    50.3940 
 2027.6861 
   49.1550    49.7710 
 2027.8385 
   48.5080    47.3540 
 2027.9909 
   42.5150    40.8360 
 2028.1433 
   35.4280    32.4890 
 2028.2957 
   28.3400    24.1410 
 2028.4481 
   21.2530    18.2700 
 2028.6005 
   17.1680    16.4330 
 2028.7529 
   16.2360    14.7890 
 2028.9053 
   16.7230    14.6060 
 2029.0577 
   17.8680    15.4450 
 2029.2101 
   19.0120    16.6460 
 2029.3625 
   19.6910    16.8540 
 2029.5149 
   19.6910    16.7500 
 2029.6673 
   18.3930    15.8370 
 2029.8197 
   16.7070    14.5500 
 2029.9721 
   15.0220    12.9570 
 2030.1245 
   13.4710    11.9690 
 2030.2769 
   13.1400    11.8210 
 2030.4293 
   13.1400    13.7710 
 2030.5817 
   15.3330    15.6450 
 2030.7341 
   16.7500    16.9590 
 2030.8865 
   16.9590    17.0650 
 2031.0389 
   16.4200    15.6480 
 2031.1913 
   14.3840    14.0320 
 2031.3437 
   12.3480    11.8320 
 2031.4961 
   10.3120     9.6310 
 2031.6485 
    8.2760     7.9870 
 2031.8009 
    7.7820     7.6460 
 2031.9533 
    7.5950     7.5520 
 2032.1057 
    7.5090     7.0960 
 2032.2581 
    7.2840     6.8360 
 2032.4105 
    6.8600     6.5040 
 2032.5629 
    6.4350     6.3440 
 2032.7153 
    6.2930     6.3050 
 2032.8677 
    6.2660     6.3920 
 2033.0201 
    6.5690     6.7190 
 2033.1725 
    6.8110     7.0460 
 2033.3249 
    7.0530     7.3730 
 2033.4773 
    7.2350     7.7420 
 2033.6297 
    7.3210     7.8880 
 2033.7821 
    7.2300     7.9370 
 2033.9345 
    7.1020     7.9370 
 2034.0869 
    6.9740     7.7910 
 2034.2393 
    6.7940     7.6940 
 2034.3917 
    6.8330     7.7420 
 2034.5441 
    6.8980     7.8100 
 2034.6965 
    6.9630     7.8590 
 2034.8489 
    7.0520     7.9090 
 2035.0013 
    7.0400     7.9370 
 2035.1537 
    7.0200     7.5990 
 2035.3061 
    7.0080     7.5520 
 2035.4585 
    7.0660     7.4590 
 2035.6109 
    7.1170     7.4590 
 2035.7633 
    7.2050     7.4590 
 2035.9157 
    7.2930     7.5520 
 2036.0681 
    7.3810     7.6230 
 2036.2205 
    7.4690     7.6460 
 2036.3729 
    7.5990     7.6460 
 2036.5253 
    7.5920     7.6940 
 2036.6777 
    7.5780     7.6940 
 2036.8301 
    7.5640     7.6940 
 2036.9825 
    7.5430     7.6460 
 2037.1349 
    7.4430     7.5520 
 2037.2873 
    7.3210     7.5520 
 2037.4397 
    7.5980     7.8510 
 2037.5921 
   10.6880     9.6660 
 2037.7445 
   14.9120    14.1220 
 2037.8969 
   19.1350    18.5780 
 2038.0493 
   22.1630    21.7530 
 2038.2017 
   22.3010    21.8890 
 2038.3541 
   21.3510    21.3510 
 2038.5065 
   17.2100    17.9030 
 2038.6589 
   12.5670    13.1320 
 2038.8113 
    9.5880     9.5070 
 2038.9637 
    8.9340     9.1020 
 2039.1161 
    8.9970     9.1020 
 2039.2685 
    9.1020     9.0790 
 2039.4209 
    9.0310     9.0200 
 2039.5733 
    8.9160     8.9620 
 2039.7257 
    8.8230     8.9340 
 2039.8781 
    9.1340     9.0180 
 2040.0305 
    9.3950     9.2550 
 2040.1829 
    9.6570     9.6500 
 2040.3353 
    9.9180    10.0460 
 2040.4877 
   10.1810    10.2440 
 2040.6401 
   10.1810    10.1810 
 2040.7925 
   10.1810    10.1180 
 2040.9449 
    9.8020     9.9930 
 2041.0973 
    9.3190     9.5670 
 2041.2497 
    9.1020     9.2160 
 2041.4021 
    9.2190     9.2160 
 2041.5545 
    9.3460     9.3660 
 2041.7069 
    9.4730     9.5300 
 2041.8593 
    9.5670     9.6860 
 2042.0117 
    9.4510     9.4630 
 2042.1641 
    9.2590     9.2510 
 2042.3165 
    9.0670     8.9590 
 2042.4689 
    8.8180     8.6600 
 2042.6213 
    8.4390     8.1880 
 2042.7737 
    8.1880     8.0870 
 2042.9261 
    8.3160     8.2390 
 2043.0785 
    8.5300     8.4820 
 2043.2309 
    8.7450     8.7190 
 2043.3833 
    8.9890     8.9890 
 2043.5357 
    8.9410     8.8990 
 2043.6881 
    8.7990     8.7940 
