~Version Information
 VERS.                  2.0:   CWLS log ASCII Standard -VERSION 2.0
 WRAP.                  YES:   Multiple lines per depth step
~Well Information Block
#MNEM.UNIT       Data Type    Information
#---------     -----------    ---------------------------
 STRT.M                19.6596:
 STOP.M              2365.8623:
 STEP.M                 0.1524:
 NULL.               -999.2500:
 WELL-NAME.             CASN-1:  COMMON WELL NAME
 COMPANY.            ECOPETROL:  WELL OPERATOR
 FIELD-NAME.    CASTILLA NORTE:  FIELD
 COUN.                 ACACIAS:  COUNTY
 STAT.                    META:  STATE
 UWI .                CASN0001:  UWI
 CWN .                  CASN-1:  COMMON WELL NAME
 WELL.        CASTILLA NORTE-1:  WELL NAME
 LSRV.              PETROWORKS:  LOG NAME
 PASI.                    NONE:  LOG PASS ID
 PAST.                 UNKNOWN:  LOG PASS TYPE
 LATI.DEG             3.873520:  LATITUDE
 LONG.DEG           -73.628010:  LONGITUDE
 TD  .M            2392.684814:  TOTAL DEPTH
 RUN .                      -1:  LOG RUN NO
~Parameter Information Block
#MNEM.UNIT       Value        Description
#---------     -----------    ---------------------------
~Curve Information Block
#MNEM.UNIT                 API CODE     Curve Description
#---------               -----------    ---------------------------
 DEPTH.M                00 000 000 000:  Index Curve
 RS  .OHMM              00 000 000 000:  Resistivity; shallow
 RD  .OHMM              00 000 000 000:  Resistivity; deep
~A 
# ...
 1101.5494 
    5.2740     5.4140 
 1101.7018 
    5.2270     5.3330 
 1101.8542 
    5.1800     5.2470 
 1102.0066 
    5.1340     5.1800 
 1102.1590 
    5.0880     5.1240 
 1102.3114 
    5.0430     5.0690 
 1102.4638 
    5.0060     5.0150 
 1102.6162 
    4.9760     4.9580 
 1102.7686 
    4.9580     4.9450 
 1102.9210 
    4.9820     4.9270 
 1103.0734 
    5.0110     4.9610 
 1103.2258 
    5.0460     5.0080 
 1103.3782 
    5.1090     5.1160 
 1103.5306 
    5.1810     5.2480 
 1103.6830 
    5.3430     5.3880 
 1103.8354 
    5.4990     5.5350 
 1103.9878 
    5.5890     5.6640 
 1104.1402 
    5.6490     5.7670 
 1104.2926 
    5.6930     5.8540 
 1104.4450 
    5.6930     5.9070 
 1104.5974 
    5.6490     5.9520 
 1104.7498 
    5.6090     5.9650 
 1104.9022 
    5.5520     5.9790 
 1105.0546 
    5.4480     5.9920 
 1105.2070 
    5.4800     6.0060 
 1105.3594 
    5.5400     6.0200 
 1105.5118 
    5.6380     6.0550 
 1105.6642 
    5.6940     6.1000 
 1105.8166 
    5.7410     6.3830 
 1105.9690 
    5.8010     6.4960 
 1106.1214 
    5.7700     6.4410 
 1106.2738 
    5.7290     6.3340 
 1106.4262 
    5.4820     6.0660 
 1106.5786 
    5.2790     5.8180 
 1106.7310 
    5.1080     5.5410 
 1106.8834 
    4.9590     5.2770 
 1107.0358 
    4.8320     5.1060 
 1107.1882 
    4.7280     4.9890 
 1107.3406 
    4.6600     5.0220 
 1107.4930 
    4.6560     5.0460 
 1107.6454 
    4.6920     5.0520 
 1107.7978 
    4.7520     5.0520 
 1107.9502 
    4.8310     5.0520 
 1108.1026 
    4.9080     5.0990 
 1108.2550 
    4.9830     5.2360 
 1108.4074 
    5.1160     5.4730 
 1108.5598 
    5.2540     5.7370 
 1108.7122 
    5.3970     6.0280 
 1108.8646 
    5.5650     6.2710 
 1109.0170 
    5.7470     6.4960 
 1109.1694 
    5.9290     6.7000 
 1109.3218 
    6.0240     6.8820 
 1109.4742 
    5.9680     6.9600 
 1109.6266 
    5.8500     6.9230 
 1109.7790 
    5.6220     6.8620 
 1109.9314 
    5.4230     6.6830 
 1110.0838 
    5.2990     6.4420 
 1110.2362 
    5.2170     6.1000 
 1110.3886 
    5.1160     5.6820 
 1110.5410 
    4.9540     5.2870 
 1110.6934 
    4.7490     4.9310 
 1110.8458 
    4.5420     4.6610 
 1110.9982 
    4.3730     4.4480 
 1111.1506 
    4.2310     4.2810 
 1111.3030 
    4.1450     4.1650 
 1111.4554 
    4.1060     4.0810 
 1111.6078 
    4.1280     4.1000 
 1111.7602 
    4.2280     4.1560 
 1111.9126 
    4.3500     4.2420 
 1112.0650 
    4.4470     4.3280 
 1112.2174 
    4.5200     4.4200 
 1112.3698 
    4.5680     4.5480 
 1112.5222 
    4.6070     4.6750 
 1112.6746 
    4.6560     4.8010 
 1112.8270 
    4.6290     4.8600 
 1112.9794 
    4.5940     4.8960 
 1113.1318 
    4.5690     4.9120 
 1113.2842 
    4.5910     4.9270 
 1113.4366 
    4.6270     4.9270 
 1113.5890 
    4.6610     4.9340 
 1113.7414 
    4.7080     4.9670 
 1113.8938 
    4.7800     5.0370 
 1114.0462 
    4.8540     5.1820 
 1114.1986 
    4.9270     5.3850 
 1114.3510 
    5.0820     5.6330 
 1114.5034 
    5.2940     5.9420 
 1114.6558 
    5.5570     6.2820 
 1114.8082 
    5.8610     6.7780 
 1114.9606 
    6.1790     7.2680 
 1115.1130 
    6.4960     7.7480 
 1115.2654 
    6.7490     8.0870 
 1115.4178 
    6.9490     8.3860 
 1115.5702 
    7.0930     8.4690 
 1115.7226 
    7.0230     8.5100 
 1115.8750 
    6.9780     8.3440 
 1116.0274 
    6.7920     7.9840 
 1116.1798 
    6.3820     7.6240 
 1116.3322 
    6.0370     7.2640 
 1116.4846 
    5.8320     6.8980 
 1116.6370 
    5.7470     6.4960 
 1116.7894 
    5.6140     6.1880 
 1116.9418 
    5.4570     5.9980 
 1117.0942 
    5.3650     5.8740 
 1117.2466 
    5.3460     5.9120 
 1117.3990 
    5.4350     6.0170 
 1117.5514 
    5.5650     6.2640 
 1117.7038 
    5.6820     6.5630 
 1117.8562 
    5.8040     6.9450 
 1118.0086 
    5.9470     7.3170 
 1118.1610 
    6.1000     7.6840 
 1118.3134 
    6.3230     7.8060 
 1118.4658 
    6.4900     7.8620 
 1118.6182 
    6.5370     7.8920 
 1118.7706 
    6.4150     7.6970 
 1118.9230 
    6.1000     7.3340 
 1119.0754 
    5.8150     6.8930 
 1119.2278 
    5.4760     6.4080 
 1119.3802 
    5.2080     5.9230 
 1119.5326 
    5.0120     5.5450 
 1119.6850 
    4.8720     5.2740 
 1119.8374 
    4.8050     5.0890 
 1119.9898 
    4.8050     4.9860 
 1120.1422 
    4.8460     4.9580 
 1120.2946 
    4.8930     4.9790 
 1120.4470 
    4.9490     5.0150 
 1120.5994 
    5.0210     5.0960 
 1120.7518 
    5.0970     5.1810 
 1120.9042 
    5.1750     5.3650 
 1121.0566 
    5.2510     5.5390 
 1121.2090 
    5.3250     5.7140 
 1121.3614 
    5.4090     5.9070 
 1121.5138 
    5.4990     6.1190 
 1121.6662 
    5.5970     6.4230 
 1121.8186 
    5.7180     6.7270 
 1121.9710 
    5.8730     6.8640 
 1122.1234 
    6.0670     7.0040 
 1122.2758 
    6.2950     7.2920 
 1122.4282 
    6.5910     7.5680 
 1122.5806 
    6.7080     7.7050 
 1122.7330 
    6.7450     7.7940 
 1122.8854 
    6.6800     7.7940 
 1123.0378 
    6.5210     7.5510 
 1123.1902 
    6.2950     7.3130 
 1123.3426 
    6.1010     7.0730 
 1123.4950 
    5.9420     6.8320 
 1123.6474 
    5.8250     6.5620 
 1123.7998 
    5.7290     6.3000 
 1123.9522 
    5.7390     6.1360 
 1124.1046 
    5.7580     6.0590 
 1124.2570 
    5.7770     6.0240 
 1124.4094 
    5.7960     6.0530 
 1124.5618 
    5.8290     6.0750 
 1124.7142 
    5.8680     6.0970 
 1124.8666 
    5.9100     6.1520 
 1125.0191 
    5.9520     6.2160 
 1125.1715 
    5.9860     6.2970 
 1125.3239 
    5.9660     6.3810 
 1125.4763 
    5.9490     6.4620 
 1125.6287 
    5.9840     6.5780 
 1125.7811 
    6.0190     6.6760 
 1125.9335 
    6.0850     6.7760 
 1126.0859 
    6.1540     6.8780 
 1126.2383 
    6.2650     6.9820 
 1126.3907 
    6.3970     7.1210 
 1126.5431 
    6.5180     7.2710 
 1126.6955 
    6.6300     7.4730 
 1126.8479 
    6.7470     7.6990 
 1127.0003 
    6.8710     7.8930 
 1127.1527 
    6.9950     8.0640 
 1127.3051 
    7.1190     8.2350 
 1127.4575 
    7.2430     8.4080 
 1127.6099 
    7.3540     8.5820 
 1127.7623 
    7.4470     8.7440 
 1127.9147 
    7.5390     8.8450 
 1128.0671 
    7.6150     8.9460 
 1128.2195 
    7.6870     9.0140 
 1128.3719 
    7.7450     9.0340 
 1128.5243 
    7.7450     9.0540 
 1128.6767 
    7.7450     9.1060 
 1128.8291 
    7.7350     9.1840 
 1128.9815 
    7.7160     9.2610 
 1129.1339 
    7.6980     9.3720 
 1129.2863 
    7.6050     9.4700 
 1129.4387 
    7.5060     9.3720 
 1129.5911 
    7.3870     9.1220 
 1129.7435 
    7.2480     8.8090 
 1129.8959 
    7.0710     8.4820 
 1130.0483 
    6.7530     8.0590 
 1130.2007 
    6.4350     7.5130 
 1130.3531 
    6.1180     7.0410 
 1130.5055 
    5.8400     6.5750 
 1130.6579 
    5.5890     6.1060 
 1130.8103 
    5.3940     5.6800 
 1130.9627 
    5.2130     5.3330 
 1131.1151 
    5.1070     5.0630 
 1131.2675 
    5.0420     5.0020 
 1131.4199 
    5.0210     4.9890 
 1131.5723 
    5.0630     5.0520 
 1131.7247 
    5.1320     5.2560 
 1131.8771 
    5.2340     5.4930 
 1132.0295 
    5.4550     5.8820 
 1132.1819 
    5.9130     6.2710 
 1132.3343 
    6.2340     6.6600 
 1132.4867 
    6.4820     7.1340 
 1132.6391 
    6.6830     7.5940 
 1132.7915 
    6.7960     7.9740 
 1132.9439 
    6.8940     8.1840 
 1133.0963 
    6.9770     8.2990 
 1133.2487 
    7.0580     8.2640 
 1133.4011 
    7.1220     8.2470 
 1133.5535 
    7.1830     8.4290 
 1133.7059 
    7.2300     8.6930 
 1133.8583 
    7.2730     8.8600 
 1134.0107 
    7.3650     8.8930 
 1134.1631 
    7.3260     8.7270 
 1134.3155 
    7.2510     8.4610 
 1134.4679 
    7.1150     8.1360 
 1134.6203 
    6.9390     7.7830 
 1134.7727 
    6.6120     7.4200 
 1134.9251 
    6.3510     7.2060 
 1135.0775 
    6.1770     7.0540 
 1135.2299 
    6.1390     6.9130 
 1135.3823 
    6.3740     6.8550 
 1135.5347 
    6.5770     6.8310 
 1135.6871 
    6.7280     6.9130 
 1135.8395 
    6.8310     7.0290 
 1135.9919 
    6.8260     7.2050 
 1136.1443 
    6.8740     7.4400 
 1136.2967 
    6.9770     7.6970 
