~Version Information
 VERS.                  2.0:   CWLS log ASCII Standard -VERSION 2.0
 WRAP.                  YES:   Multiple lines per depth step
~Well Information Block
#MNEM.UNIT       Data Type    Information
#---------     -----------    ---------------------------
 STRT.M                19.6596:
 STOP.M              2365.8623:
 STEP.M                 0.1524:
 NULL.               -999.2500:
 WELL-NAME.             CASN-1:  COMMON WELL NAME
 COMPANY.            ECOPETROL:  WELL OPERATOR
 FIELD-NAME.    CASTILLA NORTE:  FIELD
 COUN.                 ACACIAS:  COUNTY
 STAT.                    META:  STATE
 UWI .                CASN0001:  UWI
 CWN .                  CASN-1:  COMMON WELL NAME
 WELL.        CASTILLA NORTE-1:  WELL NAME
 LSRV.              PETROWORKS:  LOG NAME
 PASI.                    NONE:  LOG PASS ID
 PAST.                 UNKNOWN:  LOG PASS TYPE
 LATI.DEG             3.873520:  LATITUDE
 LONG.DEG           -73.628010:  LONGITUDE
 TD  .M            2392.684814:  TOTAL DEPTH
 RUN .                      -1:  LOG RUN NO
~Parameter Information Block
#MNEM.UNIT       Value        Description
#---------     -----------    ---------------------------
~Curve Information Block
#MNEM.UNIT                 API CODE     Curve Description
#---------               -----------    ---------------------------
 DEPTH.M                00 000 000 000:  Index Curve
 RS  .OHMM              00 000 000 000:  Resistivity; shallow
 RD  .OHMM              00 000 000 000:  Resistivity; deep
~A 
# ...
 1869.3421 
    3.8240     2.9420 
 1869.4945 
    3.7670     2.8990 
 1869.6469 
    3.7260     2.8560 
 1869.7993 
    3.7040     2.8230 
 1869.9517 
    3.6700     2.7910 
 1870.1041 
    3.6180     2.7600 
 1870.2565 
    3.5990     2.7350 
 1870.4089 
    3.6020     2.7100 
 1870.5613 
    3.6330     2.6880 
 1870.7137 
    3.6440     2.6690 
 1870.8661 
    3.6210     2.6450 
 1871.0185 
    3.5540     2.6530 
 1871.1709 
    3.5120     2.6660 
 1871.3233 
    3.4970     2.6780 
 1871.4757 
    3.4870     2.7130 
 1871.6281 
    3.5720     2.7500 
 1871.7805 
    3.6720     2.7930 
 1871.9329 
    3.7780     2.8640 
 1872.0853 
    3.9050     2.9350 
 1872.2377 
    4.0120     3.0040 
 1872.3901 
    4.0860     3.0680 
 1872.5425 
    4.1320     3.1320 
 1872.6949 
    4.1320     3.1930 
 1872.8473 
    4.1230     3.2470 
 1872.9997 
    4.1060     3.3010 
 1873.1521 
    4.0810     3.3480 
 1873.3045 
    4.0970     3.3800 
 1873.4569 
    4.1640     3.4110 
 1873.6093 
    4.2720     3.4440 
 1873.7617 
    4.3750     3.4570 
 1873.9141 
    4.4000     3.4700 
 1874.0665 
    4.4000     3.4830 
 1874.2189 
    4.3570     3.5050 
 1874.3713 
    4.3450     3.5320 
 1874.5237 
    4.3480     3.5600 
 1874.6761 
    4.4000     3.5760 
 1874.8285 
    4.5220     3.5290 
 1874.9809 
    4.5690     3.4960 
 1875.1334 
    4.5240     3.4660 
 1875.2858 
    4.4090     3.4370 
 1875.4382 
    4.2790     3.4080 
 1875.5906 
    4.1830     3.3800 
 1875.7430 
    4.1320     3.3380 
 1875.8954 
    4.1320     3.3130 
 1876.0478 
    4.1580     3.3050 
 1876.2002 
    4.1870     3.2960 
 1876.3526 
    4.2030     3.3190 
 1876.5050 
    4.2280     3.3510 
 1876.6574 
    4.2600     3.3830 
 1876.8098 
    4.3070     3.4110 
 1876.9622 
    4.3570     3.4330 
 1877.1146 
    4.3930     3.4660 
 1877.2670 
    4.4220     3.4610 
 1877.4194 
    4.4410     3.4540 
 1877.5718 
    4.4560     3.4460 
 1877.7242 
    4.4380     3.4330 
 1877.8766 
    4.3750     3.4170 
 1878.0290 
    4.2460     3.4010 
 1878.1814 
    4.1510     3.4010 
 1878.3338 
    4.1320     3.4010 
 1878.4862 
    4.1560     3.4330 
 1878.6386 
    4.2490     3.4750 
 1878.7910 
    4.4390     3.5780 
 1878.9434 
    4.6800     3.7090 
 1879.0958 
    4.8810     3.8350 
 1879.2482 
    5.0610     3.9580 
 1879.4006 
    5.2300     4.0240 
 1879.5530 
    5.3560     4.0550 
 1879.7054 
    5.3800     4.0420 
 1879.8578 
    5.1910     4.0220 
 1880.0102 
    4.8490     3.9560 
 1880.1626 
    4.5650     3.8860 
 1880.3150 
    4.3110     3.8090 
 1880.4674 
    4.2110     3.7420 
 1880.6198 
    4.2370     3.6920 
 1880.7722 
    4.4100     3.6600 
 1880.9246 
    4.6140     3.6440 
 1881.0770 
    4.8050     3.7060 
 1881.2294 
    4.8650     3.7600 
 1881.3818 
    4.8160     3.7600 
 1881.5342 
    4.6870     3.7190 
 1881.6866 
    4.5590     3.6440 
 1881.8390 
    4.4580     3.5410 
 1881.9914 
    4.3300     3.4220 
 1882.1438 
    4.1640     3.2800 
 1882.2962 
    4.0420     3.2090 
 1882.4486 
    4.0040     3.1740 
 1882.6010 
    3.9790     3.1990 
 1882.7534 
    4.0360     3.2220 
 1882.9058 
    4.1500     3.2430 
 1883.0582 
    4.3730     3.2680 
 1883.2106 
    4.4730     3.2990 
 1883.3630 
    4.4840     3.3160 
 1883.5154 
    4.4220     3.2380 
 1883.6678 
    4.3290     3.1670 
 1883.8202 
    4.1880     3.0920 
 1883.9726 
    4.0020     3.0110 
 1884.1250 
    3.8030     2.9120 
 1884.2774 
    3.6590     2.7990 
 1884.4298 
    3.6440     2.7810 
 1884.5822 
    3.6540     2.8030 
 1884.7346 
    3.7010     2.8600 
 1884.8870 
    3.8400     2.9580 
 1885.0394 
    4.1720     3.1180 
 1885.1918 
    4.6070     3.3560 
 1885.3442 
    4.9430     3.5990 
 1885.4966 
    5.2530     3.8910 
 1885.6490 
    5.5480     4.1590 
 1885.8014 
    5.7290     4.3860 
 1885.9538 
    5.6750     4.5520 
 1886.1062 
    5.6000     4.6560 
 1886.2586 
    5.4450     4.6560 
 1886.4110 
    5.3030     4.6280 
 1886.5634 
    5.2460     4.5820 
 1886.7158 
    5.2960     4.5690 
 1886.8682 
    5.3570     4.5690 
 1887.0206 
    5.4570     4.5930 
 1887.1730 
    5.5870     4.6230 
 1887.3254 
    5.6480     4.6840 
 1887.4778 
    5.7080     4.7510 
 1887.6302 
    5.7570     4.8250 
 1887.7826 
    5.8060     4.9040 
 1887.9350 
    5.8530     4.9790 
 1888.0874 
    5.9270     5.0440 
 1888.2398 
    6.0240     5.1090 
 1888.3922 
    6.0980     5.1790 
 1888.5446 
    6.1500     5.2790 
 1888.6970 
    6.1770     5.2690 
 1888.8494 
    6.1530     5.2520 
 1889.0018 
    6.0940     5.1750 
 1889.1542 
    5.9700     5.0720 
 1889.3066 
    5.7620     4.9450 
 1889.4590 
    5.5720     4.8130 
 1889.6114 
    5.4150     4.6170 
 1889.7638 
    5.2800     4.4280 
 1889.9162 
    5.1150     4.1740 
 1890.0686 
    4.9240     3.9480 
 1890.2210 
    4.7390     3.7810 
 1890.3734 
    4.5620     3.6150 
 1890.5258 
    4.4660     3.4490 
 1890.6782 
    4.3710     3.2950 
 1890.8306 
    4.1890     3.1540 
 1890.9830 
    4.0660     3.0590 
 1891.1354 
    3.9880     2.9810 
 1891.2878 
    3.9300     2.9970 
 1891.4402 
    3.9650     3.0240 
 1891.5926 
    4.0300     3.1060 
 1891.7450 
    4.1660     3.2060 
 1891.8974 
    4.3990     3.3300 
 1892.0498 
    4.6760     3.4440 
 1892.2022 
    4.9960     3.5540 
 1892.3546 
    5.3130     3.6150 
 1892.5070 
    5.2870     3.6750 
 1892.6594 
    5.1480     3.7310 
 1892.8118 
    4.8210     3.7840 
 1892.9642 
    4.5900     3.8330 
 1893.1166 
    4.5120     3.8810 
 1893.2690 
    4.5990     3.9380 
 1893.4214 
    4.8550     3.9970 
 1893.5738 
    5.2660     4.1370 
 1893.7262 
    5.6910     4.3630 
 1893.8786 
    5.9780     4.7320 
 1894.0310 
    6.3080     5.1580 
 1894.1834 
    6.5700     5.5080 
 1894.3358 
    6.7880     5.6790 
 1894.4882 
    6.8740     5.8190 
 1894.6406 
    6.8360     5.8830 
 1894.7930 
    6.7970     5.9490 
 1894.9454 
    6.7880     6.0410 
 1895.0978 
    6.8390     6.1360 
 1895.2502 
    6.9400     6.2140 
 1895.4026 
    7.0600     6.2790 
 1895.5550 
    7.1520     6.3340 
 1895.7074 
    7.1830     6.3150 
 1895.8598 
    7.1240     6.2980 
 1896.0122 
    7.0040     6.1850 
 1896.1646 
    6.8640     6.0540 
 1896.3170 
    6.6940     5.7580 
 1896.4694 
    6.5010     5.4140 
 1896.6218 
    6.2250     5.1620 
 1896.7742 
    5.8700     4.9490 
 1896.9266 
    5.6390     4.7650 
 1897.0790 
    5.5520     4.7150 
 1897.2314 
    5.5520     4.7270 
 1897.3838 
    5.6720     4.7400 
 1897.5362 
    5.8230     4.7970 
 1897.6886 
    5.9920     4.8800 
 1897.8410 
    6.1990     5.0100 
 1897.9934 
    6.4550     5.1970 
 1898.1458 
    6.6720     5.3130 
 1898.2982 
    6.7880     5.3130 
 1898.4506 
    6.5780     5.2260 
 1898.6030 
    6.1520     5.1090 
 1898.7554 
    5.7550     4.9350 
 1898.9078 
    5.4480     4.6870 
 1899.0602 
    5.2650     4.3730 
 1899.2126 
    5.0770     4.1330 
 1899.3650 
    4.9670     3.9120 
 1899.5174 
    4.8480     3.7670 
 1899.6698 
    4.7240     3.6870 
 1899.8222 
    4.6270     3.6440 
 1899.9746 
    4.6270     3.6580 
 1900.1270 
    4.7520     3.6900 
 1900.2794 
    4.8850     3.7600 
 1900.4318 
    5.0740     3.8440 
 1900.5842 
    5.2710     3.9350 
 1900.7366 
    5.4420     4.0310 
 1900.8890 
    5.5330     4.1280 
 1901.0414 
    5.5520     4.2160 
 1901.1938 
    5.4430     4.3010 
 1901.3462 
    5.3680     4.3670 
 1901.4986 
    5.2890     4.4120 
 1901.6510 
    5.2130     4.4560 
 1901.8034 
    5.2860     4.5420 
 1901.9558 
    5.4840     4.6240 
 1902.1082 
    5.7780     4.7130 
 1902.2606 
    6.1000     4.8070 
 1902.4130 
    6.2550     4.8960 
 1902.5654 
    6.1390     4.9500 
 1902.7178 
    6.0410     5.0010 
 1902.8702 
    5.9590     5.0210 
 1903.0226 
    5.9030     5.0210 
 1903.1750 
    5.8810     5.0070 
 1903.3274 
    5.8740     4.9280 
 1903.4798 
    5.8740     4.8480 
 1903.6322 
    5.8280     4.7920 
 1903.7846 
    5.7470     4.7410 
 1903.9370 
    5.6820     4.7020 
 1904.0894 
    5.6440     4.6750 
