~Version Information
 VERS.                  2.0:   CWLS log ASCII Standard -VERSION 2.0
 WRAP.                  YES:   Multiple lines per depth step
~Well Information Block
#MNEM.UNIT       Data Type    Information
#---------     -----------    ---------------------------
 STRT.M                19.6596:
 STOP.M              2365.8623:
 STEP.M                 0.1524:
 NULL.               -999.2500:
 WELL-NAME.             CASN-1:  COMMON WELL NAME
 COMPANY.            ECOPETROL:  WELL OPERATOR
 FIELD-NAME.    CASTILLA NORTE:  FIELD
 COUN.                 ACACIAS:  COUNTY
 STAT.                    META:  STATE
 UWI .                CASN0001:  UWI
 CWN .                  CASN-1:  COMMON WELL NAME
 WELL.        CASTILLA NORTE-1:  WELL NAME
 LSRV.              PETROWORKS:  LOG NAME
 PASI.                    NONE:  LOG PASS ID
 PAST.                 UNKNOWN:  LOG PASS TYPE
 LATI.DEG             3.873520:  LATITUDE
 LONG.DEG           -73.628010:  LONGITUDE
 TD  .M            2392.684814:  TOTAL DEPTH
 RUN .                      -1:  LOG RUN NO
~Parameter Information Block
#MNEM.UNIT       Value        Description
#---------     -----------    ---------------------------
~Curve Information Block
#MNEM.UNIT                 API CODE     Curve Description
#---------               -----------    ---------------------------
 DEPTH.M                00 000 000 000:  Index Curve
 RS  .OHMM              00 000 000 000:  Resistivity; shallow
 RD  .OHMM              00 000 000 000:  Resistivity; deep
~A 
# ...
 1415.6464 
    6.1190     6.7310 
 1415.7988 
    6.0620     6.3410 
 1415.9512 
    5.7530     5.9000 
 1416.1036 
    5.3670     5.4430 
 1416.2560 
    4.9500     4.9830 
 1416.4084 
    4.6290     4.5700 
 1416.5608 
    4.3430     4.2300 
 1416.7132 
    4.1880     3.9320 
 1416.8656 
    4.0650     3.6710 
 1417.0180 
    3.9350     3.4480 
 1417.1704 
    3.8140     3.2470 
 1417.3228 
    3.7190     3.0820 
 1417.4752 
    3.6540     2.9830 
 1417.6276 
    3.6440     2.9430 
 1417.7800 
    3.6670     2.9880 
 1417.9324 
    3.7210     3.1070 
 1418.0848 
    3.7740     3.2680 
 1418.2372 
    3.8990     3.4220 
 1418.3896 
    4.1410     3.7130 
 1418.5420 
    4.4340     3.9920 
 1418.6944 
    4.7040     4.2770 
 1418.8468 
    4.9420     4.6020 
 1418.9992 
    5.1490     4.9280 
 1419.1516 
    5.3250     5.2000 
 1419.3040 
    5.4140     5.4660 
 1419.4564 
    5.3870     5.6570 
 1419.6088 
    5.2680     5.5480 
 1419.7612 
    5.1190     5.3680 
 1419.9136 
    4.9680     5.1030 
 1420.0660 
    4.7810     4.7930 
 1420.2184 
    4.6020     4.5000 
 1420.3708 
    4.4220     4.2110 
 1420.5232 
    4.2580     3.9510 
 1420.6756 
    4.1320     3.7560 
 1420.8280 
    4.0310     3.6080 
 1420.9804 
    3.9300     3.5000 
 1421.1328 
    3.9410     3.4440 
 1421.2852 
    3.9520     3.5170 
 1421.4376 
    4.0080     3.6240 
 1421.5900 
    4.1210     3.7370 
 1421.7424 
    4.3450     3.9900 
 1421.8948 
    4.6370     4.2710 
 1422.0472 
    4.9570     4.6340 
 1422.1996 
    5.3020     5.0080 
 1422.3520 
    5.6360     5.4110 
 1422.5044 
    5.8570     5.7160 
 1422.6568 
    6.0070     5.8740 
 1422.8092 
    6.0620     5.8740 
 1422.9616 
    5.9830     5.8370 
 1423.1140 
    5.9220     5.7650 
 1423.2664 
    5.8610     5.5580 
 1423.4188 
    5.7050     5.3120 
 1423.5712 
    5.3210     5.0210 
 1423.7236 
    4.8420     4.5470 
 1423.8760 
    4.3750     4.1590 
 1424.0284 
    4.0750     3.9300 
 1424.1808 
    3.9540     3.9050 
 1424.3332 
    4.0040     3.9350 
 1424.4856 
    4.4450     4.0660 
 1424.6380 
    5.0380     4.2620 
 1424.7904 
    5.5520     4.4920 
 1424.9428 
    5.8360     4.7370 
 1425.0953 
    5.9860     4.9820 
 1425.2477 
    5.8770     5.1880 
 1425.4001 
    5.5700     5.2130 
 1425.5525 
    5.1110     4.9110 
 1425.7049 
    4.6270     4.4740 
 1425.8573 
    4.1970     4.0700 
 1426.0097 
    3.9340     3.7930 
 1426.1621 
    3.8380     3.6320 
 1426.3145 
    3.7940     3.4840 
 1426.4669 
    3.7710     3.3580 
 1426.6193 
    3.7500     3.2600 
 1426.7717 
    3.7130     3.1880 
 1426.9241 
    3.6500     3.1520 
 1427.0765 
    3.5990     3.1340 
 1427.2289 
    3.6080     3.1880 
 1427.3813 
    3.6670     3.2850 
 1427.5337 
    3.7330     3.4010 
 1427.6861 
    3.8120     3.5270 
 1427.8385 
    3.8970     3.6670 
 1427.9909 
    3.9670     3.7790 
 1428.1433 
    4.0280     3.8970 
 1428.2957 
    4.0890     3.9870 
 1428.4481 
    4.1130     4.0660 
 1428.6005 
    4.1220     4.1340 
 1428.7529 
    4.1310     4.1900 
 1428.9053 
    4.1560     4.2500 
 1429.0577 
    4.1840     4.3250 
 1429.2101 
    4.2110     4.4010 
 1429.3625 
    4.3600     4.4760 
 1429.5149 
    4.5010     4.5520 
 1429.6673 
    4.6630     4.6730 
 1429.8197 
    4.8330     4.8660 
 1429.9721 
    5.0200     5.0520 
 1430.1245 
    5.2540     5.4350 
 1430.2769 
    5.4820     5.8030 
 1430.4293 
    5.8380     6.2470 
 1430.5817 
    6.1840     6.7100 
 1430.7341 
    6.6570     7.0890 
 1430.8865 
    7.1630     7.3700 
 1431.0389 
    7.5860     7.6510 
 1431.1913 
    7.9420     7.7450 
 1431.3437 
    7.9420     7.4620 
 1431.4961 
    7.3300     7.0340 
 1431.6485 
    6.8910     6.3320 
 1431.8009 
    6.4150     5.2590 
 1431.9533 
    5.7720     4.5320 
 1432.1057 
    4.9110     3.9500 
 1432.2581 
    4.1590     3.5680 
 1432.4105 
    3.8050     3.3010 
 1432.5629 
    3.5690     3.1090 
 1432.7153 
    3.4870     3.0760 
 1432.8677 
    3.6220     3.0560 
 1433.0201 
    3.8810     3.0560 
 1433.1725 
    4.1840     3.2090 
 1433.3249 
    4.3450     3.4000 
 1433.4773 
    4.4420     3.5990 
 1433.6297 
    4.5400     3.8370 
 1433.7821 
    4.5010     4.0720 
 1433.9345 
    4.4840     4.2760 
 1434.0869 
    4.5030     4.4230 
 1434.2393 
    4.5340     4.5400 
 1434.3917 
    4.5820     4.6130 
 1434.5441 
    4.6540     4.6840 
 1434.6965 
    4.7150     4.7280 
 1434.8489 
    4.6850     4.7520 
 1435.0013 
    4.6850     4.7750 
 1435.1537 
    4.6790     4.7650 
 1435.3061 
    4.6660     4.7550 
 1435.4585 
    4.6560     4.7450 
 1435.6109 
    4.6560     4.7360 
 1435.7633 
    4.6560     4.7260 
 1435.9157 
    4.6470     4.7160 
 1436.0681 
    4.6370     4.6990 
 1436.2205 
    4.6270     4.6810 
 1436.3729 
    4.6190     4.6620 
 1436.5253 
    4.6090     4.6440 
 1436.6777 
    4.6000     4.6270 
 1436.8301 
    4.5900     4.6090 
 1436.9825 
    4.5810     4.5910 
 1437.1349 
    4.5720     4.5730 
 1437.2873 
    4.5630     4.5550 
 1437.4397 
    4.5540     4.5390 
 1437.5921 
    4.5450     4.5310 
 1437.7445 
    4.5350     4.5230 
 1437.8969 
    4.5260     4.5150 
 1438.0493 
    4.5120     4.5070 
 1438.2017 
    4.5170     4.4990 
 1438.3541 
    4.5270     4.4910 
 1438.5065 
    4.5360     4.4840 
 1438.6589 
    4.5450     4.4840 
 1438.8113 
    4.5540     4.4840 
 1438.9637 
    4.5630     4.4840 
 1439.1161 
    4.5730     4.4940 
 1439.2685 
    4.5820     4.5100 
 1439.4209 
    4.5910     4.5270 
 1439.5733 
    4.6080     4.5530 
 1439.7257 
    4.6460     4.6260 
 1439.8781 
    4.6850     4.7000 
 1440.0305 
    4.7930     4.7990 
 1440.1829 
    4.9080     4.9380 
 1440.3353 
    5.0660     5.0770 
 1440.4877 
    5.2330     5.2530 
 1440.6401 
    5.3900     5.4430 
 1440.7925 
    5.5520     5.5810 
 1440.9449 
    5.5870     5.6570 
 1441.0973 
    5.4000     5.5100 
 1441.2497 
    5.1840     5.2440 
 1441.4021 
    4.9730     5.0210 
 1441.5545 
    4.7750     4.8110 
 1441.7069 
    4.7040     4.6560 
 1441.8593 
    4.6510     4.6830 
 1442.0117 
    4.6270     4.7290 
 1442.1641 
    4.6760     4.8150 
 1442.3165 
    4.7450     4.9010 
 1442.4689 
    4.8750     4.9870 
 1442.6213 
    5.0330     5.1670 
 1442.7737 
    5.2550     5.4080 
 1442.9261 
    5.5340     5.6690 
 1443.0785 
    5.6640     5.9490 
 1443.2309 
    5.8000     6.1220 
 1443.3833 
    5.9090     6.2950 
 1443.5357 
    6.0080     6.3960 
 1443.6881 
    6.0610     6.4550 
 1443.8405 
    6.1130     6.4550 
 1443.9929 
    6.1390     6.4300 
 1444.1453 
    6.1130     6.3900 
 1444.2977 
    6.0810     6.3420 
 1444.4501 
    6.0130     6.2880 
 1444.6025 
    5.9490     6.2350 
 1444.7549 
    5.9230     6.1820 
 1444.9073 
    5.9120     6.1390 
 1445.0597 
    6.0810     6.2030 
 1445.2121 
    6.2470     6.2160 
 1445.3645 
    6.4540     6.4300 
 1445.5169 
    6.6880     6.6700 
 1445.6693 
    6.8980     6.9740 
 1445.8217 
    7.0700     7.2800 
 1445.9741 
    7.2720     7.5950 
 1446.1265 
    7.4920     7.8430 
 1446.2789 
    7.8760     8.1950 
 1446.4313 
    8.2990     8.5690 
 1446.5837 
    8.7860     9.0100 
 1446.7361 
    9.1740     9.4770 
 1446.8885 
    9.5040     9.9720 
 1447.0409 
   10.0570    10.4960 
 1447.1933 
   10.6700    10.9980 
 1447.3457 
   11.1100    11.4480 
 1447.4981 
   11.3700    11.9100 
 1447.6505 
   11.4630    12.3260 
 1447.8029 
   11.5060    12.5910 
 1447.9553 
   11.3830    12.7560 
 1448.1077 
   11.3400    12.8030 
 1448.2601 
   11.2970    12.4850 
 1448.4125 
   11.0610    12.1170 
 1448.5649 
   10.7730    11.7500 
 1448.7173 
   10.4140    11.3950 
 1448.8697 
    9.8800    11.0750 
 1449.0221 
    9.1930    10.6180 
 1449.1745 
    8.6940    10.0210 
 1449.3269 
    8.3920     9.1980 
 1449.4793 
    7.9850     8.2200 
 1449.6317 
    7.4450     7.4180 
 1449.7841 
    6.7950     6.7740 
 1449.9365 
    6.1010     6.2710 
 1450.0889 
    5.6940     5.8670 
 1450.2413 
    5.4260     5.5170 
 1450.3937 
    5.2170     5.3610 
