~Version Information
 VERS.                  2.0:   CWLS log ASCII Standard -VERSION 2.0
 WRAP.                  YES:   Multiple lines per depth step
~Well Information Block
#MNEM.UNIT       Data Type    Information
#---------     -----------    ---------------------------
 STRT.M                19.6596:
 STOP.M              2365.8623:
 STEP.M                 0.1524:
 NULL.               -999.2500:
 WELL-NAME.             CASN-1:  COMMON WELL NAME
 COMPANY.            ECOPETROL:  WELL OPERATOR
 FIELD-NAME.    CASTILLA NORTE:  FIELD
 COUN.                 ACACIAS:  COUNTY
 STAT.                    META:  STATE
 UWI .                CASN0001:  UWI
 CWN .                  CASN-1:  COMMON WELL NAME
 WELL.        CASTILLA NORTE-1:  WELL NAME
 LSRV.              PETROWORKS:  LOG NAME
 PASI.                    NONE:  LOG PASS ID
 PAST.                 UNKNOWN:  LOG PASS TYPE
 LATI.DEG             3.873520:  LATITUDE
 LONG.DEG           -73.628010:  LONGITUDE
 TD  .M            2392.684814:  TOTAL DEPTH
 RUN .                      -1:  LOG RUN NO
~Parameter Information Block
#MNEM.UNIT       Value        Description
#---------     -----------    ---------------------------
~Curve Information Block
#MNEM.UNIT                 API CODE     Curve Description
#---------               -----------    ---------------------------
 DEPTH.M                00 000 000 000:  Index Curve
 RS  .OHMM              00 000 000 000:  Resistivity; shallow
 RD  .OHMM              00 000 000 000:  Resistivity; deep
~A 
# ...
  473.3553 
   22.8510    81.6990 
  473.5077 
   22.8130    81.6990 
  473.6601 
   22.7730    81.6990 
  473.8125 
   22.7340    82.0400 
  473.9649 
   22.6950    82.6630 
  474.1173 
   22.6780    84.6040 
  474.2697 
   22.6780    86.6800 
  474.4221 
   22.6780    88.5580 
  474.5745 
   22.6780    90.0000 
  474.7269 
   22.6780    90.6420 
  474.8793 
   22.6780    90.9080 
  475.0318 
   22.6400    90.9080 
  475.1842 
   22.5950    90.0220 
  475.3366 
   22.5490    89.5740 
  475.4890 
   22.4790    89.1270 
  475.6414 
   22.3990    88.6520 
  475.7938 
   22.3210    89.2060 
  475.9462 
   22.1960    89.7730 
  476.0986 
   21.8110    89.7730 
  476.2510 
   21.4640    89.6090 
  476.4034 
   21.1820    88.4360 
  476.5558 
   20.8870    86.7760 
  476.7082 
   20.5750    83.5750 
  476.8606 
   20.1430    78.6170 
  477.0130 
   19.6780    73.3510 
  477.1654 
   19.0900    68.5200 
  477.3178 
   18.4900    61.3190 
  477.4702 
   17.9200    55.1110 
  477.6226 
   17.3230    48.9210 
  477.7750 
   16.6680    42.6140 
  477.9274 
   15.8710    36.2690 
  478.0798 
   14.9440    30.0880 
  478.2322 
   14.1210    24.9620 
  478.3846 
   13.2950    20.9090 
  478.5370 
   12.6160    18.3660 
  478.6894 
   11.9390    16.1130 
  478.8418 
   11.4450    14.3360 
  478.9942 
   11.0470    13.3870 
  479.1466 
   10.7920    12.4550 
  479.2990 
   10.6150    11.7300 
  479.4514 
   10.5090    11.2110 
  479.6038 
   10.4710    11.1060 
  479.7562 
   10.4710    11.0060 
  479.9086 
   10.4710    10.9420 
  480.0610 
   10.4710    11.0550 
  480.2134 
   10.5340    11.2780 
  480.3658 
   10.6040    11.6510 
  480.5182 
   10.8600    12.2870 
  480.6706 
   11.1260    13.4230 
  480.8230 
   11.4690    14.6080 
  480.9754 
   11.9470    16.0520 
  481.1278 
   12.8210    18.5600 
  481.2802 
   13.6900    21.4040 
  481.4326 
   14.5490    25.4080 
  481.5850 
   15.3190    30.1780 
  481.7374 
   16.2190    35.6560 
  481.8898 
   16.6920    42.1240 
  482.0422 
   17.0950    47.5950 
  482.1946 
   17.4480    50.6110 
  482.3470 
   17.6380    51.6460 
  482.4994 
   17.5960    51.4940 
  482.6518 
   17.5330    51.1220 
  482.8042 
   17.5280    50.2940 
  482.9566 
   17.5280    49.0020 
  483.1090 
   17.5280    47.5950 
  483.2614 
   17.4540    44.2340 
  483.4138 
   17.2680    40.6070 
  483.5662 
   16.9700    36.6770 
  483.7186 
   16.6080    32.5830 
  483.8710 
   16.0790    28.9800 
  484.0234 
   15.5270    25.8110 
  484.1758 
   15.0210    23.1950 
  484.3282 
   14.6000    21.6620 
  484.4806 
   14.2800    20.6800 
  484.6330 
   14.1570    20.5090 
  484.7854 
   14.3870    20.7530 
  484.9378 
   14.5690    21.6190 
  485.0902 
   14.9540    23.4000 
  485.2426 
   15.5010    25.4470 
  485.3950 
   16.2190    29.0990 
  485.5474 
   16.8850    33.7880 
  485.6998 
   17.5020    39.4340 
  485.8522 
   17.8990    44.6050 
  486.0046 
   18.1490    48.3090 
  486.1570 
   18.2010    49.8290 
  486.3094 
   18.2010    50.0490 
  486.4618 
   17.9340    48.0440 
  486.6142 
   17.5740    42.2680 
  486.7666 
   17.3500    36.4920 
  486.9190 
   17.1290    33.1580 
  487.0714 
   16.8850    30.0020 
  487.2238 
   16.5980    27.5100 
  487.3762 
   16.4490    26.2030 
  487.5286 
   16.3580    26.2030 
  487.6810 
   16.7560    26.9070 
  487.8334 
   17.2690    29.0360 
  487.9858 
   18.1480    31.4720 
  488.1382 
   19.1730    33.6900 
  488.2906 
   20.2100    37.7070 
  488.4430 
   21.2240    44.8640 
  488.5954 
   22.2230    54.1160 
  488.7478 
   23.0580    67.1940 
  488.9002 
   23.8170    82.2520 
  489.0526 
   24.4790    94.8850 
  489.2050 
   25.0650   101.1860 
  489.3574 
   25.5450   107.0650 
  489.5098 
   25.8910   110.6940 
  489.6622 
   26.2030   111.8520 
  489.8146 
   26.1050   110.5840 
  489.9670 
   26.1720   108.8210 
  490.1194 
   26.2400   106.8200 
  490.2718 
   26.3110   103.8570 
  490.4242 
   26.3680   100.6970 
  490.5766 
   26.1320    97.3010 
  490.7290 
   25.9320    93.1100 
  490.8814 
   25.7330    89.9350 
  491.0338 
   25.5360    87.5450 
  491.1862 
   25.3210    87.2970 
  491.3386 
   25.0640    87.0620 
  491.4910 
   24.8060    86.9970 
  491.6434 
   24.3630    86.9970 
  491.7958 
   23.8840    86.4930 
  491.9482 
   23.3010    85.1970 
  492.1006 
   22.6510    82.6720 
  492.2530 
   21.9570    78.9900 
  492.4054 
   21.1910    71.8900 
  492.5578 
   20.3480    62.8860 
  492.7102 
   19.3030    53.2560 
  492.8626 
   18.2760    43.8450 
  493.0150 
   17.3420    36.1000 
  493.1674 
   16.4610    29.7890 
  493.3198 
   15.3870    24.6230 
  493.4722 
   14.4260    20.5740 
  493.6246 
   13.4850    17.5380 
  493.7770 
   12.6430    15.5590 
  493.9294 
   12.1690    14.0080 
  494.0818 
   11.7710    12.9720 
  494.2342 
   11.6150    12.1750 
  494.3866 
   11.4940    11.7860 
  494.5390 
   11.4560    11.7250 
  494.6914 
   11.4340    11.7920 
  494.8438 
   11.7340    12.2140 
  494.9962 
   11.9480    13.3660 
  495.1486 
   12.3620    14.3640 
  495.3010 
   12.7800    15.9630 
  495.4534 
   13.3570    17.8670 
  495.6058 
   14.0590    19.7700 
  495.7582 
   14.6940    22.2050 
  495.9106 
   15.2020    24.8900 
  496.0630 
   15.7100    27.5750 
  496.2154 
   16.2580    30.2600 
  496.3678 
   16.8100    33.2340 
  496.5202 
   17.2830    36.1000 
  496.6726 
   17.6740    38.9300 
  496.8250 
   18.0870    41.4420 
  496.9774 
   18.4780    42.9530 
  497.1298 
   18.8920    44.2960 
  497.2822 
   19.1800    45.3850 
  497.4346 
   19.2790    45.5480 
  497.5870 
   19.3820    45.5480 
  497.7394 
   19.4260    45.4880 
  497.8918 
   19.4720    45.3760 
  498.0442 
   19.5040    45.2620 
  498.1966 
   19.5040    45.8350 
  498.3490 
   19.5040    46.4140 
  498.5014 
   19.4680    47.4230 
  498.6538 
   19.4220    48.3670 
  498.8062 
   19.3640    49.1000 
  498.9586 
   19.2280    49.7590 
  499.1110 
   19.0910    49.9360 
  499.2634 
   18.8120    50.0490 
  499.4158 
   18.3750    48.4770 
  499.5682 
   17.9390    46.2700 
  499.7206 
   17.4410    42.9370 
  499.8730 
   16.9310    39.2860 
  500.0254 
   16.2850    33.9530 
  500.1778 
   15.2930    28.7100 
  500.3302 
   14.3150    24.7280 
  500.4826 
   13.3610    20.7460 
  500.6350 
   12.4230    17.5600 
  500.7874 
   11.6750    16.2000 
  500.9398 
   10.9950    14.8390 
  501.0922 
   10.5760    13.4630 
  501.2446 
   10.2560    12.6150 
  501.3970 
   10.0630    11.8820 
  501.5494 
    9.8950    11.5850 
  501.7018 
    9.8950    11.2910 
  501.8542 
    9.8950    11.4310 
  502.0066 
    9.8950    11.6270 
  502.1590 
    9.8950    11.8870 
  502.3114 
    9.8950    12.1520 
  502.4638 
    9.8950    12.4240 
  502.6162 
    9.8950    12.6580 
  502.7686 
    9.8900    12.8840 
  502.9210 
    9.8550    12.7450 
  503.0734 
    9.7470    12.5150 
  503.2258 
    9.5280    12.1750 
  503.3782 
    9.2530    11.5380 
  503.5306 
    8.9490    10.8700 
  503.6830 
    8.6750    10.2190 
  503.8354 
    8.4320     9.5890 
  503.9878 
    8.1770     9.1790 
  504.1402 
    8.0300     8.7620 
  504.2926 
    7.9210     8.3520 
  504.4450 
    7.8570     8.1030 
  504.5974 
    7.8000     7.9210 
  504.7498 
    7.7450     7.7940 
  504.9022 
    7.7030     7.8200 
  505.0546 
    7.6480     7.8610 
  505.2070 
    7.7080     8.0000 
  505.3594 
    7.7280     8.1500 
  505.5118 
    7.7480     8.2990 
  505.6642 
    7.7680     8.5510 
  505.8166 
    7.7880     8.7820 
  505.9690 
    7.8860     9.0650 
  506.1214 
    8.0150     9.3350 
  506.2738 
    8.1450     9.5650 
  506.4262 
    8.2780     9.7560 
  506.5786 
    8.4040     9.9580 
  506.7310 
    8.6250    10.3750 
  506.8834 
    8.8350    10.8170 
  507.0358 
    9.1270    11.2590 
  507.1882 
    9.4520    11.7250 
  507.3406 
    9.8380    12.7570 
  507.4930 
   10.3210    13.8490 
  507.6454 
   10.8680    14.9410 
  507.7978 
   11.5800    16.1590 
  507.9502 
   12.2520    18.0030 
  508.1026 
   13.1540    19.8460 
