~Version Information
 VERS.                  2.0:   CWLS log ASCII Standard -VERSION 2.0
 WRAP.                  YES:   Multiple lines per depth step
~Well Information Block
#MNEM.UNIT       Data Type    Information
#---------     -----------    ---------------------------
 STRT.M                19.6596:
 STOP.M              2365.8623:
 STEP.M                 0.1524:
 NULL.               -999.2500:
 WELL-NAME.             CASN-1:  COMMON WELL NAME
 COMPANY.            ECOPETROL:  WELL OPERATOR
 FIELD-NAME.    CASTILLA NORTE:  FIELD
 COUN.                 ACACIAS:  COUNTY
 STAT.                    META:  STATE
 UWI .                CASN0001:  UWI
 CWN .                  CASN-1:  COMMON WELL NAME
 WELL.        CASTILLA NORTE-1:  WELL NAME
 LSRV.              PETROWORKS:  LOG NAME
 PASI.                    NONE:  LOG PASS ID
 PAST.                 UNKNOWN:  LOG PASS TYPE
 LATI.DEG             3.873520:  LATITUDE
 LONG.DEG           -73.628010:  LONGITUDE
 TD  .M            2392.684814:  TOTAL DEPTH
 RUN .                      -1:  LOG RUN NO
~Parameter Information Block
#MNEM.UNIT       Value        Description
#---------     -----------    ---------------------------
~Curve Information Block
#MNEM.UNIT                 API CODE     Curve Description
#---------               -----------    ---------------------------
 DEPTH.M                00 000 000 000:  Index Curve
 RS  .OHMM              00 000 000 000:  Resistivity; shallow
 RD  .OHMM              00 000 000 000:  Resistivity; deep
~A 
# ...
  333.7567 
    6.9380     9.2790 
  333.9091 
    6.8000     8.9570 
  334.0615 
    6.6980     8.6900 
  334.2139 
    6.6210     8.4710 
  334.3663 
    6.5580     8.2950 
  334.5187 
    6.4960     8.1960 
  334.6711 
    6.4340     8.1960 
  334.8235 
    6.3760     8.1580 
  334.9759 
    6.3190     8.1210 
  335.1283 
    6.2620     8.0720 
  335.2807 
    6.2050     7.9920 
  335.4331 
    6.1600     7.9120 
  335.5855 
    6.1260     7.8430 
  335.7379 
    6.0970     7.7760 
  335.8903 
    6.0820     7.7100 
  336.0427 
    6.0680     7.6430 
  336.1951 
    6.0620     7.5770 
  336.3475 
    6.0620     7.5370 
  336.4999 
    6.0620     7.5060 
  336.6523 
    6.1110     7.5890 
  336.8047 
    6.1590     7.7120 
  336.9571 
    6.2280     7.9140 
  337.1095 
    6.3110     8.1090 
  337.2619 
    6.4100     8.3880 
  337.4143 
    6.5670     8.7360 
  337.5667 
    6.7230     9.0830 
  337.7191 
    6.8800     9.4310 
  337.8715 
    7.0210     9.7780 
  338.0239 
    7.1380    10.0440 
  338.1763 
    7.1180    10.2320 
  338.3287 
    7.0830    10.3400 
  338.4811 
    7.0480    10.3170 
  338.6335 
    7.0130    10.2840 
  338.7859 
    6.9800    10.2270 
  338.9383 
    6.9480    10.1620 
  339.0907 
    6.9160    10.0530 
  339.2431 
    6.8840     9.7720 
  339.3955 
    6.8340     9.2930 
  339.5479 
    6.7750     9.1970 
  339.7003 
    6.7160     9.0920 
  339.8527 
    6.6610     8.9710 
  340.0051 
    6.6310     8.8370 
  340.1575 
    6.6030     8.6700 
  340.3099 
    6.5770     8.4980 
  340.4623 
    6.5630     8.3570 
  340.6147 
    6.5490     8.2340 
  340.7671 
    6.5370     8.1440 
  340.9195 
    6.5370     8.2340 
  341.0719 
    6.5490     8.4400 
  341.2243 
    6.6380     8.7200 
  341.3767 
    6.7730     9.0090 
  341.5291 
    7.0270     9.3690 
  341.6815 
    7.2780     9.7360 
  341.8339 
    7.5250    10.0840 
  341.9863 
    7.7310    10.8470 
  342.1387 
    7.9440    11.5690 
  342.2911 
    8.1440    12.2520 
  342.4435 
    8.2790    12.7230 
  342.5959 
    8.4070    13.0830 
  342.7483 
    8.5610    13.4240 
  342.9007 
    8.7320    13.7810 
  343.0531 
    8.8930    14.1630 
  343.2055 
    9.1560    14.5450 
  343.3579 
    9.4050    15.3030 
  343.5103 
    9.6130    16.1360 
  343.6627 
    9.7810    16.7200 
  343.8151 
    9.9580    17.1440 
  343.9675 
   10.0560    17.3090 
  344.1199 
   10.1590    17.3090 
  344.2723 
   10.2110    17.1800 
  344.4247 
   10.1450    17.0250 
  344.5771 
   10.1010    16.8730 
  344.7295 
   10.0570    16.7580 
  344.8819 
   10.0130    16.6440 
  345.0343 
    9.9690    16.3610 
  345.1867 
    9.9580    15.6810 
  345.3391 
    9.9580    15.1660 
  345.4915 
    9.9580    14.7980 
  345.6439 
    9.9580    14.4260 
  345.7963 
    9.9580    14.3710 
  345.9487 
    9.9580    14.3360 
  346.1011 
    9.9580    14.9760 
  346.2535 
   10.1470    15.9490 
  346.4059 
   10.7120    17.3090 
  346.5583 
   11.3370    19.2980 
  346.7107 
   12.0410    21.7960 
  346.8631 
   12.7200    25.9310 
  347.0155 
   13.3640    30.8300 
  347.1679 
   13.8310    36.5550 
  347.3203 
   14.1470    43.8770 
  347.4727 
   14.2460    48.5010 
  347.6251 
   13.9670    48.5010 
  347.7775 
   13.6330    42.6600 
  347.9299 
   13.0060    35.5700 
  348.0823 
   12.3290    28.4790 
  348.2347 
   11.5100    21.7520 
  348.3871 
   10.6920    19.0430 
  348.5395 
   10.1780    16.3350 
  348.6919 
    9.6710    14.3320 
  348.8443 
    9.2720    12.8910 
  348.9967 
    8.9530    11.4500 
  349.1491 
    8.7960    10.6910 
  349.3015 
    8.7270    10.2730 
  349.4539 
    8.7270    10.2110 
  349.6063 
    8.7860    10.4940 
  349.7587 
    8.8510    10.9250 
  349.9111 
    8.9150    11.4270 
  350.0635 
    9.0040    11.9950 
  350.2159 
    9.1190    12.7310 
  350.3683 
    9.2350    13.5100 
  350.5207 
    9.3530    14.3060 
  350.6731 
    9.4180    14.9460 
  350.8255 
    9.4320    15.4910 
  350.9779 
    9.4460    15.7920 
  351.1303 
    9.4610    16.0520 
  351.2827 
    9.4700    16.1090 
  351.4351 
    9.3400    16.1530 
  351.5875 
    9.2460    15.8130 
  351.7399 
    9.0900    15.2680 
  351.8923 
    8.9130    14.4020 
  352.0447 
    8.6610    13.4540 
  352.1971 
    8.4200    12.4810 
  352.3495 
    8.1130    11.4820 
  352.5019 
    7.8110    10.6960 
  352.6543 
    7.5160     9.9780 
  352.8067 
    7.2760     9.2930 
  352.9591 
    7.0940     9.2710 
  353.1115 
    6.9780     8.9560 
  353.2639 
    6.8830     8.4570 
  353.4163 
    6.8530     8.2140 
  353.5687 
    6.8310     8.1440 
  353.7211 
    6.8310     8.1840 
  353.8735 
    6.8310     8.3580 
  354.0259 
    6.8180     8.5540 
  354.1783 
    6.8040     8.7270 
  354.3307 
    6.7900     8.7270 
  354.4831 
    6.7770     8.5990 
  354.6355 
    6.7630     8.4490 
  354.7879 
    6.7450     8.3470 
  354.9403 
    6.7560     8.2600 
  355.0927 
    6.7700     8.1850 
  355.2451 
    6.7830     8.1440 
  355.3975 
    6.8200     8.1800 
  355.5499 
    6.8680     8.2490 
  355.7023 
    6.9170     8.3890 
  355.8547 
    6.9900     8.6430 
  356.0071 
    7.0670     9.0060 
  356.1595 
    7.2800     9.5050 
  356.3119 
    7.5620    10.1440 
  356.4643 
    7.8710    11.0330 
  356.6167 
    8.1920    11.8730 
  356.7691 
    8.5660    13.3250 
  356.9215 
    8.9920    14.7010 
  357.0739 
    9.4320    16.0770 
  357.2263 
    9.9060    17.4530 
  357.3787 
   10.3740    18.8300 
  357.5311 
   10.7840    20.0670 
  357.6835 
   11.1940    21.4610 
  357.8359 
   11.4700    22.5800 
  357.9883 
   11.7050    23.2940 
  358.1407 
   11.9400    23.6670 
  358.2931 
   12.1750    24.0200 
  358.4455 
   12.4070    24.2170 
  358.5979 
   12.5510    24.4130 
  358.7503 
   12.6940    24.9410 
  358.9027 
   12.9480    25.5540 
  359.0551 
   13.2300    26.3880 
  359.2075 
   13.5120    27.4640 
  359.3599 
   13.7940    28.6370 
  359.5123 
   14.0790    30.0790 
  359.6647 
   14.3630    31.5390 
  359.8171 
   14.6480    32.9930 
  359.9695 
   14.9320    34.4260 
  360.1219 
   15.1530    35.2350 
  360.2743 
   15.3100    35.7370 
  360.4267 
   15.4580    36.1290 
  360.5791 
   15.5000    36.2310 
  360.7315 
   15.5400    36.3280 
  360.8839 
   15.5800    36.0350 
  361.0363 
   15.6200    35.7570 
  361.1887 
   15.6540    35.3860 
  361.3411 
   15.6070    34.9540 
  361.4935 
   15.5670    34.5470 
  361.6459 
   15.4700    34.3060 
  361.7983 
   15.3510    33.8880 
  361.9507 
   15.2330    32.5210 
  362.1031 
   15.1160    31.1870 
  362.2555 
   15.0000    29.8870 
  362.4079 
   14.8150    28.7250 
  362.5603 
   14.6160    27.5540 
  362.7127 
   14.4880    27.3450 
  362.8651 
   14.4260    27.2100 
  363.0175 
   14.5370    27.5540 
  363.1699 
   14.6490    28.0660 
  363.3223 
   14.7530    29.0490 
  363.4747 
   14.8570    30.2770 
  363.6271 
   14.9630    33.8780 
  363.7795 
   15.0750    37.6280 
  363.9319 
   15.1700    41.4470 
  364.0843 
   15.0040    44.6970 
  364.2367 
   14.8850    45.2530 
  364.3891 
   14.7700    45.5480 
  364.5415 
   14.5600    44.6970 
  364.6939 
   14.2000    43.0040 
  364.8463 
   13.7790    38.9910 
  364.9987 
   13.2240    33.6450 
  365.1511 
   12.6430    27.8220 
  365.3035 
   11.8650    21.9980 
  365.4559 
   11.0550    18.2630 
  365.6083 
   10.2470    15.3320 
  365.7607 
    9.6840    12.5640 
  365.9131 
    9.2720    11.2150 
  366.0655 
    9.0100    10.2650 
  366.2179 
    8.8890     9.5100 
  366.3703 
    8.8470     9.0620 
  366.5227 
    8.8370     9.1630 
  366.6751 
    8.9200     9.5090 
  366.8275 
    9.0390    10.0230 
  366.9799 
    9.2580    10.7640 
  367.1323 
    9.5870    11.8850 
  367.2847 
   10.0840    13.4030 
  367.4371 
   10.4440    15.1000 
  367.5895 
   10.7790    16.4430 
  367.7419 
   11.0450    17.7500 
  367.8943 
   11.2200    18.6920 
  368.0467 
   11.2200    19.0200 
  368.1991 
   11.2440    18.6520 
  368.3515 
   11.2750    18.2820 
  368.5039 
   11.2910    17.8740 
