~Version Information
 VERS.                  2.0:   CWLS log ASCII Standard -VERSION 2.0
 WRAP.                  YES:   Multiple lines per depth step
~Well Information Block
#MNEM.UNIT       Data Type    Information
#---------     -----------    ---------------------------
 STRT.M                19.6596:
 STOP.M              2365.8623:
 STEP.M                 0.1524:
 NULL.               -999.2500:
 WELL-NAME.             CASN-1:  COMMON WELL NAME
 COMPANY.            ECOPETROL:  WELL OPERATOR
 FIELD-NAME.    CASTILLA NORTE:  FIELD
 COUN.                 ACACIAS:  COUNTY
 STAT.                    META:  STATE
 UWI .                CASN0001:  UWI
 CWN .                  CASN-1:  COMMON WELL NAME
 WELL.        CASTILLA NORTE-1:  WELL NAME
 LSRV.              PETROWORKS:  LOG NAME
 PASI.                    NONE:  LOG PASS ID
 PAST.                 UNKNOWN:  LOG PASS TYPE
 LATI.DEG             3.873520:  LATITUDE
 LONG.DEG           -73.628010:  LONGITUDE
 TD  .M            2392.684814:  TOTAL DEPTH
 RUN .                      -1:  LOG RUN NO
~Parameter Information Block
#MNEM.UNIT       Value        Description
#---------     -----------    ---------------------------
~Curve Information Block
#MNEM.UNIT                 API CODE     Curve Description
#---------               -----------    ---------------------------
 DEPTH.M                00 000 000 000:  Index Curve
 RS  .OHMM              00 000 000 000:  Resistivity; shallow
 RD  .OHMM              00 000 000 000:  Resistivity; deep
~A 
# ...
  159.2583 
   34.7400    51.8470 
  159.4107 
   34.1150    50.2880 
  159.5631 
   33.5040    46.9820 
  159.7155 
   31.4680    43.6760 
  159.8679 
   29.4760    40.8000 
  160.0203 
   27.5280    38.6430 
  160.1727 
   25.6950    36.3960 
  160.3251 
   23.8620    31.7620 
  160.4775 
   22.0290    27.6450 
  160.6299 
   20.1960    24.5470 
  160.7823 
   18.3910    21.4500 
  160.9347 
   16.6840    18.3520 
  161.0871 
   14.9780    15.6230 
  161.2395 
   13.6930    14.0490 
  161.3919 
   12.6430    12.4760 
  161.5443 
   12.1470    10.9020 
  161.6967 
   11.7820    10.2340 
  161.8491 
   11.5810     9.7370 
  162.0015 
   11.3810     9.6200 
  162.1539 
   11.2740     9.5010 
  162.3063 
   11.2740     9.4140 
  162.4587 
   11.2740     9.3720 
  162.6111 
   11.3000     9.4460 
  162.7635 
   11.3300     9.6180 
  162.9159 
   11.4040     9.7910 
  163.0683 
   11.5280     9.9640 
  163.2207 
   11.6520    10.1370 
  163.3731 
   11.7760    10.3120 
  163.5255 
   11.9010    10.5560 
  163.6779 
   12.0250    10.8030 
  163.8303 
   12.1490    11.0500 
  163.9827 
   12.3350    11.2970 
  164.1351 
   12.5330    11.5440 
  164.2875 
   12.7310    11.7880 
  164.4399 
   12.9290    12.0940 
  164.5923 
   13.1270    12.3970 
  164.7447 
   13.3250    12.6990 
  164.8971 
   13.5220    13.1360 
  165.0495 
   13.7200    13.7920 
  165.2019 
   14.0940    14.4470 
  165.3543 
   14.4820    15.1020 
  165.5067 
   14.8700    15.7580 
  165.6591 
   15.3240    16.4130 
  165.8115 
   16.2230    17.0690 
  165.9639 
   17.1220    17.7200 
  166.1163 
   18.4010    21.4380 
  166.2687 
   20.4330    25.1360 
  166.4211 
   22.4650    28.8340 
  166.5735 
   24.4970    32.5310 
  166.7259 
   26.5290    36.2290 
  166.8783 
   28.4780    39.6320 
  167.0307 
   29.5230    42.3700 
  167.1831 
   30.2850    45.1970 
  167.3355 
   30.3760    45.7770 
  167.4879 
   30.4510    45.4860 
  167.6403 
   29.7050    44.1290 
  167.7927 
   29.0680    42.1310 
  167.9451 
   28.4320    40.1330 
  168.0975 
   27.7960    38.1350 
  168.2499 
   27.1590    36.1370 
  168.4023 
   26.7150    34.5360 
  168.5547 
   26.5080    34.3050 
  168.7071 
   26.3000    34.0750 
  168.8595 
   26.0920    33.8440 
  169.0119 
   25.8850    33.6130 
  169.1643 
   25.6770    33.3820 
  169.3167 
   25.4690    32.6110 
  169.4691 
   25.1590    31.4900 
  169.6215 
   24.5560    30.4380 
  169.7739 
   23.8040    29.5990 
  169.9263 
   22.9840    28.7600 
  170.0787 
   22.1640    27.1700 
  170.2311 
   21.3440    25.3610 
  170.3835 
   20.5240    23.5530 
  170.5359 
   19.7810    21.7440 
  170.6883 
   19.1110    20.1490 
  170.8407 
   18.4110    18.8840 
  170.9931 
   18.1830    18.0840 
  171.1455 
   17.9450    17.5920 
  171.2979 
   17.7080    17.4140 
  171.4503 
   17.4760    17.2370 
  171.6027 
   17.2950    17.0590 
  171.7551 
   17.1150    16.8810 
  171.9075 
   16.9340    16.7030 
  172.0599 
   16.7530    16.5260 
  172.2123 
   16.5720    16.4160 
  172.3647 
   16.3920    16.4160 
  172.5171 
   16.2110    16.4160 
  172.6695 
   16.1060    16.4160 
  172.8219 
   16.2080    16.4160 
  172.9743 
   16.2800    16.4910 
  173.1267 
   16.6560    16.8320 
  173.2791 
   17.2690    17.1650 
  173.4315 
   17.8830    18.2250 
  173.5839 
   18.4960    19.2620 
  173.7363 
   19.1100    20.8780 
  173.8887 
   19.7470    25.4320 
  174.0411 
   20.5040    29.9860 
  174.1935 
   21.8070    34.5400 
  174.3459 
   23.3890    39.0940 
  174.4983 
   24.9700    43.6480 
  174.6507 
   26.5510    48.2020 
  174.8031 
   28.2100    52.7560 
  174.9555 
   29.2360    57.3100 
  175.1080 
   30.3140    61.8640 
  175.2604 
   31.6860    66.4180 
  175.4128 
   33.6620    70.9720 
  175.5652 
   35.6390    75.5260 
  175.7176 
   37.6150    80.0800 
  175.8700 
   39.5910    85.0610 
  176.0224 
   41.5670    92.0570 
  176.1748 
   43.5430    99.0530 
  176.3272 
   45.5940   106.0490 
  176.4796 
   47.6550   113.0450 
  176.6320 
   49.5200   119.2080 
  176.7844 
   50.2480   120.5590 
  176.9368 
   50.6880   121.9100 
  177.0892 
   50.5710   122.8600 
  177.2416 
   50.4870   116.0190 
  177.3940 
   50.4040   111.1950 
  177.5464 
   49.6300   107.7140 
  177.6988 
   48.2910   101.7430 
  177.8512 
   46.4980    93.0320 
  178.0036 
   44.4930    82.9520 
  178.1560 
   42.4890    72.8720 
  178.3084 
   40.4840    63.3460 
  178.4608 
   38.4790    57.8220 
  178.6132 
   36.5400    52.5860 
  178.7656 
   35.3890    47.3500 
  178.9180 
   34.2380    44.8230 
  179.0704 
   33.0860    42.7060 
  179.2228 
   32.2310    40.9440 
  179.3752 
   31.7350    40.3630 
  179.5276 
   31.2400    39.7810 
  179.6800 
   30.9340    39.1990 
  179.8324 
   30.7560    38.6180 
  179.9848 
   30.5790    37.8140 
  180.1372 
   30.4020    38.5170 
  180.2896 
   30.2700    39.6540 
  180.4420 
   30.7490    40.7900 
  180.5944 
   31.5730    42.0380 
  180.7468 
   33.3340    43.3250 
  180.8992 
   35.2870    46.1150 
  181.0516 
   37.4070    54.3490 
  181.2040 
   39.5380    68.6890 
  181.3564 
   40.6310    83.0280 
  181.5088 
   41.7290    97.3680 
  181.6612 
   42.8280   112.4320 
  181.8136 
   43.9260   128.8880 
  181.9660 
   45.0250   145.3430 
  182.1184 
   46.0110   161.7980 
  182.2708 
   46.9160   177.8510 
  182.4232 
   47.8210   193.1150 
  182.5756 
   48.7270   196.8400 
  182.7280 
   49.6320   172.2440 
  182.8804 
   50.5370   152.2560 
  183.0328 
   51.4420   132.2690 
  183.1852 
   52.3470   110.9560 
  183.3376 
   53.2520   107.8570 
  183.4900 
   54.1580   106.8840 
  183.6424 
   54.5650   109.7330 
  183.7948 
   54.8230   111.8000 
  183.9472 
   55.0810   113.6730 
  184.0996 
   55.3390   116.1470 
  184.2520 
   55.9580   122.2280 
  184.4044 
   56.7290   128.3090 
  184.5568 
   57.5000   134.3900 
  184.7092 
   58.2720   138.6660 
  184.8616 
   59.0600   139.5520 
  185.0140 
   58.7430   130.3020 
  185.1664 
   58.4190   122.3320 
  185.3188 
   58.0950   112.7630 
  185.4712 
   57.7710   103.1930 
  185.6236 
   57.4470    93.6230 
  185.7760 
   56.8720    84.0530 
  185.9284 
   55.5950    76.8510 
  186.0808 
   54.3180    73.4360 
  186.2332 
   53.0420    70.3830 
  186.3856 
   51.7650    69.1340 
  186.5380 
   50.4880    67.8860 
  186.6904 
   49.2110    66.6370 
  186.8428 
   47.8640    65.3880 
  186.9952 
   46.2580    64.1400 
  187.1476 
   44.5580    62.8910 
  187.3000 
   42.9520    60.8280 
  187.4524 
   40.9000    58.4520 
  187.6048 
   38.9560    56.0750 
  187.7572 
   36.8660    51.0740 
  187.9096 
   34.0490    45.0620 
  188.0620 
   31.2320    37.6220 
  188.2144 
   28.5720    30.1580 
  188.3668 
   25.0040    23.3720 
  188.5192 
   21.6230    16.2090 
  188.6716 
   18.2420    13.8430 
  188.8240 
   15.3160    11.3380 
  188.9764 
   13.4750     9.9560 
  189.1288 
   12.6860     8.7980 
  189.2812 
   11.9460     8.0070 
  189.4336 
   11.5970     7.2790 
  189.5860 
   11.2470     6.9160 
  189.7384 
   11.0010     6.7360 
  189.8908 
   10.8740     6.5890 
  190.0432 
   10.7460     6.5360 
  190.1956 
   10.6190     6.4830 
  190.3480 
   10.4910     6.4310 
  190.5004 
   10.3760     6.3780 
  190.6528 
   10.3540     6.3250 
  190.8052 
   10.3330     6.2740 
  190.9576 
   10.3120     6.2190 
  191.1100 
   10.2910     6.1650 
  191.2624 
   10.2700     6.1110 
  191.4148 
   10.2490     6.0570 
  191.5672 
   10.2270     6.0040 
  191.7196 
   10.2060     5.9630 
  191.8720 
   10.1810     6.0190 
  192.0244 
   10.2160     6.0650 
  192.1768 
   10.2850     6.2600 
  192.3292 
   10.4180     6.5190 
  192.4816 
   10.7210     7.0880 
  192.6340 
   11.4050     7.7510 
  192.7864 
   12.2560     8.4140 
  192.9388 
   13.3210     9.0780 
  193.0912 
   14.3870     9.7410 
  193.2436 
   15.4520    11.5180 
  193.3960 
   16.5170    13.4030 
  193.5484 
   18.2280    15.2870 
  193.7008 
   20.5980    17.0640 
  193.8532 
   23.8460    22.0890 
  194.0056 
   27.7060    27.1140 
