~Version Information
 VERS.                  2.0:   CWLS log ASCII Standard -VERSION 2.0
 WRAP.                  YES:   Multiple lines per depth step
~Well Information Block
#MNEM.UNIT       Data Type    Information
#---------     -----------    ---------------------------
 STRT.M                19.6596:
 STOP.M              2365.8623:
 STEP.M                 0.1524:
 NULL.               -999.2500:
 WELL-NAME.             CASN-1:  COMMON WELL NAME
 COMPANY.            ECOPETROL:  WELL OPERATOR
 FIELD-NAME.    CASTILLA NORTE:  FIELD
 COUN.                 ACACIAS:  COUNTY
 STAT.                    META:  STATE
 UWI .                CASN0001:  UWI
 CWN .                  CASN-1:  COMMON WELL NAME
 WELL.        CASTILLA NORTE-1:  WELL NAME
 LSRV.              PETROWORKS:  LOG NAME
 PASI.                    NONE:  LOG PASS ID
 PAST.                 UNKNOWN:  LOG PASS TYPE
 LATI.DEG             3.873520:  LATITUDE
 LONG.DEG           -73.628010:  LONGITUDE
 TD  .M            2392.684814:  TOTAL DEPTH
 RUN .                      -1:  LOG RUN NO
~Parameter Information Block
#MNEM.UNIT       Value        Description
#---------     -----------    ---------------------------
~Curve Information Block
#MNEM.UNIT                 API CODE     Curve Description
#---------               -----------    ---------------------------
 DEPTH.M                00 000 000 000:  Index Curve
 RS  .OHMM              00 000 000 000:  Resistivity; shallow
 RD  .OHMM              00 000 000 000:  Resistivity; deep
~A 
# ...
  927.0511 
    8.5420    10.5320 
  927.2035 
    8.7810    10.9650 
  927.3559 
    8.9610    11.3980 
  927.5083 
    9.0610    11.5960 
  927.6607 
    9.1190    11.6770 
  927.8131 
    9.0720    11.7250 
  927.9655 
    8.9720    11.5940 
  928.1179 
    8.8420    11.3930 
  928.2703 
    8.6880    11.0530 
  928.4227 
    8.4400    10.6710 
  928.5751 
    8.1850    10.2760 
  928.7275 
    7.9420     9.8120 
  928.8799 
    7.6990     9.3510 
  929.0323 
    7.4670     8.8720 
  929.1847 
    7.2470     8.6350 
  929.3371 
    7.0740     8.4410 
  929.4895 
    6.9830     8.3390 
  929.6419 
    6.9600     8.2680 
  929.7943 
    6.9890     8.2060 
  929.9467 
    7.0100     8.1720 
  930.0991 
    7.0310     8.1440 
  930.2515 
    7.0490     8.1140 
  930.4039 
    6.9500     8.0930 
  930.5563 
    6.8580     8.0930 
  930.7087 
    6.7610     8.0490 
  930.8611 
    6.6470     7.8910 
  931.0135 
    6.5370     7.7210 
  931.1659 
    6.4240     7.5320 
  931.3183 
    6.3170     7.3400 
  931.4707 
    6.2140     7.1470 
  931.6231 
    6.1120     6.9690 
  931.7755 
    6.0170     6.7880 
  931.9279 
    5.9310     6.7370 
  932.0803 
    5.8690     6.6190 
  932.2327 
    5.8280     6.5170 
  932.3851 
    5.8090     6.4150 
  932.5375 
    5.7890     6.3870 
  932.6899 
    5.7700     6.3150 
  932.8423 
    5.7370     6.2700 
  932.9947 
    5.6990     6.2370 
  933.1471 
    5.6610     6.2030 
  933.2995 
    5.6220     6.1700 
  933.4519 
    5.5870     6.1390 
  933.6043 
    5.5520     6.1040 
  933.7567 
    5.5130     6.0710 
  933.9091 
    5.4760     6.0390 
  934.0615 
    5.4400     6.0060 
  934.2139 
    5.4040     5.9740 
  934.3663 
    5.3710     5.9420 
  934.5187 
    5.3280     5.9120 
  934.6711 
    5.2610     5.9120 
  934.8235 
    5.2090     5.9120 
  934.9759 
    5.1930     5.9280 
  935.1283 
    5.1810     5.9600 
  935.2807 
    5.2680     6.0010 
  935.4331 
    5.3810     6.0870 
  935.5855 
    5.5000     6.1730 
  935.7379 
    5.6050     6.2760 
  935.8903 
    5.6790     6.3950 
  936.0427 
    5.7290     6.4650 
  936.1951 
    5.7110     6.5220 
  936.3475 
    5.6790     6.5780 
  936.4999 
    5.5940     6.4890 
  936.6523 
    5.5100     6.4050 
  936.8047 
    5.4280     6.3210 
  936.9571 
    5.3800     6.2410 
  937.1095 
    5.3460     6.1610 
  937.2619 
    5.3460     6.1050 
  937.4143 
    5.3660     6.0580 
  937.5667 
    5.4070     6.0240 
  937.7191 
    5.4140     6.0240 
  937.8715 
    5.4070     6.0240 
  938.0239 
    5.3660     6.0790 
  938.1763 
    5.3460     6.1440 
  938.3287 
    5.4380     6.2530 
  938.4811 
    5.5170     6.4040 
  938.6335 
    5.6120     6.5620 
  938.7859 
    5.7620     6.7320 
  938.9383 
    5.8980     6.8740 
  939.0907 
    6.0240     6.9640 
  939.2431 
    6.0240     7.0500 
  939.3955 
    6.0240     7.0930 
  939.5479 
    6.0240     7.0930 
  939.7003 
    6.0210     7.0900 
  939.8527 
    6.0010     7.0710 
  940.0051 
    5.9810     7.0520 
  940.1575 
    5.9610     7.0290 
  940.3099 
    5.9490     7.0040 
  940.4623 
    6.0040     6.9820 
  940.6147 
    6.0340     6.9600 
  940.7671 
    6.0550     7.0460 
  940.9195 
    6.0760     7.0930 
  941.0719 
    6.0970     7.1530 
  941.2243 
    6.1180     7.2170 
  941.3767 
    6.1400     7.2800 
  941.5291 
    6.1620     7.3680 
  941.6815 
    6.2020     7.4950 
  941.8339 
    6.2910     7.6220 
  941.9863 
    6.3800     7.7530 
  942.1387 
    6.4770     7.8840 
  942.2911 
    6.6150     8.0620 
  942.4435 
    6.7540     8.2440 
  942.5959 
    6.8880     8.4290 
  942.7483 
    6.9910     8.6140 
  942.9007 
    7.0930     8.7170 
  943.0531 
    7.0680     8.7820 
  943.2055 
    7.0260     8.7200 
  943.3579 
    6.9280     8.6470 
  943.5103 
    6.7830     8.5340 
  943.6627 
    6.5780     8.3500 
  943.8151 
    6.3730     8.0190 
  943.9675 
    6.2020     7.6880 
  944.1199 
    6.0750     7.3570 
  944.2723 
    5.9580     7.1260 
  944.4247 
    5.8630     6.9280 
  944.5771 
    5.7650     6.7390 
  944.7295 
    5.6880     6.5710 
  944.8819 
    5.5870     6.4020 
  945.0343 
    5.5980     6.3110 
  945.1867 
    5.6220     6.2350 
  945.3391 
    5.5990     6.2030 
  945.4915 
    5.5550     6.1850 
  945.6439 
    5.5170     6.1770 
  945.7963 
    5.5170     6.1770 
  945.9487 
    5.5170     6.1770 
  946.1011 
    5.5170     6.1770 
  946.2535 
    5.5170     6.1770 
  946.4059 
    5.5170     6.1770 
  946.5583 
    5.5170     6.1770 
  946.7107 
    5.5170     6.1770 
  946.8631 
    5.5170     6.1770 
  947.0155 
    5.5340     6.1770 
  947.1679 
    5.5600     6.2360 
  947.3203 
    5.6410     6.3310 
  947.4727 
    5.7190     6.4880 
  947.6251 
    5.7920     6.6600 
  947.7775 
    5.8660     6.8310 
  947.9299 
    5.9430     6.9920 
  948.0823 
    6.0190     7.1380 
  948.2347 
    6.1000     7.1980 
  948.3871 
    6.1180     7.2730 
  948.5395 
    6.1390     7.2380 
  948.6919 
    6.0550     7.1950 
  948.8443 
    6.0010     7.1220 
  948.9967 
    5.9500     7.0370 
  949.1491 
    5.9000     6.9670 
  949.3015 
    5.8740     6.9050 
  949.4539 
    5.8740     6.8630 
  949.6063 
    5.8740     6.8430 
  949.7587 
    5.8740     6.8310 
  949.9111 
    5.8740     6.8310 
  950.0635 
    5.8860     6.8420 
  950.2159 
    5.9020     6.8830 
  950.3683 
    5.9430     6.9270 
  950.5207 
    6.0240     6.9900 
  950.6731 
    6.1000     7.0490 
  950.8255 
    6.1880     7.1610 
  950.9779 
    6.2720     7.2730 
  951.1303 
    6.3570     7.4200 
  951.2827 
    6.4430     7.5750 
  951.4351 
    6.5510     7.7550 
  951.5875 
    6.6910     7.9410 
  951.7399 
    6.8320     8.1700 
  951.8923 
    6.9730     8.4150 
  952.0447 
    7.1140     8.7380 
  952.1971 
    7.3600     9.1120 
  952.3495 
    7.6260     9.4850 
  952.5019 
    7.8930     9.8580 
  952.6543 
    8.1440    10.2310 
  952.8067 
    8.3960    10.6040 
  952.9591 
    8.6340    10.9210 
  953.1115 
    8.7970    11.2050 
  953.2639 
    8.9110    11.5060 
  953.4163 
    9.0060    11.6440 
  953.5687 
    9.1240    11.7990 
  953.7211 
    9.2370    11.8540 
  953.8735 
    9.3990    11.9120 
  954.0259 
    9.6100    12.0770 
  954.1783 
    9.8330    12.4090 
  954.3307 
   10.0690    12.7230 
  954.4831 
   10.3190    13.1730 
  954.6355 
   10.6590    13.6000 
  954.7879 
   11.1420    14.2510 
  954.9403 
   11.5780    15.1210 
  955.0927 
   12.2510    16.1570 
  955.2451 
   13.0590    17.3590 
  955.3975 
   13.8710    18.5610 
  955.5499 
   14.6870    19.7640 
  955.7023 
   15.4580    20.8990 
  955.8547 
   16.1180    22.8720 
  956.0071 
   16.7430    25.0760 
  956.1595 
   17.3470    26.1130 
  956.3119 
   17.9390    27.3570 
  956.4643 
   18.5300    28.6080 
  956.6167 
   19.1200    29.8760 
  956.7691 
   19.7110    31.1450 
  956.9215 
   20.2550    32.1080 
  957.0739 
   20.7830    32.8780 
  957.2263 
   21.2560    33.6900 
  957.3787 
   21.5880    34.2490 
  957.5311 
   21.9210    34.8420 
  957.6835 
   22.4620    35.7040 
  957.8359 
   23.0450    36.9880 
  957.9883 
   23.6180    38.2000 
  958.1407 
   24.1750    40.2460 
  958.2931 
   24.7630    42.1830 
  958.4455 
   25.0180    44.2780 
  958.5979 
   25.2880    46.7070 
  958.7503 
   25.4350    48.1880 
  958.9027 
   25.5030    48.8070 
  959.0551 
   25.5530    48.2900 
  959.2075 
   25.1880    47.6970 
  959.3599 
   24.9190    46.9840 
  959.5123 
   24.5700    46.7070 
  959.6647 
   24.2400    46.7070 
  959.8171 
   23.6670    46.8990 
  959.9695 
   22.9650    47.0010 
  960.1219 
   22.1120    43.7760 
  960.2743 
   20.8740    40.4780 
  960.4267 
   19.1360    37.4510 
  960.5791 
   17.5220    35.4210 
  960.7315 
   16.7740    34.4170 
  960.8839 
   16.8800    34.1160 
  961.0363 
   17.2610    34.2150 
  961.1887 
   18.8180    35.0410 
  961.3411 
   20.7040    36.4180 
  961.4935 
   21.5660    38.4410 
  961.6459 
   22.5750    38.4410 
  961.7983 
   22.8210    37.5000 
