~Version Information
 VERS.                  2.0:   CWLS log ASCII Standard -VERSION 2.0
 WRAP.                  YES:   Multiple lines per depth step
~Well Information Block
#MNEM.UNIT       Data Type    Information
#---------     -----------    ---------------------------
 STRT.M                19.6596:
 STOP.M              2365.8623:
 STEP.M                 0.1524:
 NULL.               -999.2500:
 WELL-NAME.             CASN-1:  COMMON WELL NAME
 COMPANY.            ECOPETROL:  WELL OPERATOR
 FIELD-NAME.    CASTILLA NORTE:  FIELD
 COUN.                 ACACIAS:  COUNTY
 STAT.                    META:  STATE
 UWI .                CASN0001:  UWI
 CWN .                  CASN-1:  COMMON WELL NAME
 WELL.        CASTILLA NORTE-1:  WELL NAME
 LSRV.              PETROWORKS:  LOG NAME
 PASI.                    NONE:  LOG PASS ID
 PAST.                 UNKNOWN:  LOG PASS TYPE
 LATI.DEG             3.873520:  LATITUDE
 LONG.DEG           -73.628010:  LONGITUDE
 TD  .M            2392.684814:  TOTAL DEPTH
 RUN .                      -1:  LOG RUN NO
~Parameter Information Block
#MNEM.UNIT       Value        Description
#---------     -----------    ---------------------------
~Curve Information Block
#MNEM.UNIT                 API CODE     Curve Description
#---------               -----------    ---------------------------
 DEPTH.M                00 000 000 000:  Index Curve
 RS  .OHMM              00 000 000 000:  Resistivity; shallow
 RD  .OHMM              00 000 000 000:  Resistivity; deep
~A 
# ...
  647.8537 
    5.5430     5.2660 
  648.0061 
    6.1360     5.8070 
  648.1585 
    7.0120     6.5990 
  648.3109 
    7.8420     7.6870 
  648.4633 
    8.6920     8.9890 
  648.6157 
    9.4690    10.4450 
  648.7681 
    9.8500    11.6350 
  648.9205 
    9.9580    12.2520 
  649.0729 
    9.8310    12.2520 
  649.2253 
    9.3840    11.3020 
  649.3777 
    8.8190    10.5430 
  649.5301 
    8.1440     9.7920 
  649.6825 
    7.5780     9.1620 
  649.8349 
    7.2850     8.5100 
  649.9873 
    7.0950     7.7100 
  650.1397 
    6.8660     6.8290 
  650.2921 
    6.5760     6.1280 
  650.4445 
    6.1690     5.8290 
  650.5969 
    5.8580     5.6690 
  650.7493 
    5.7290     5.6220 
  650.9017 
    5.8390     5.7120 
  651.0541 
    5.9920     5.8270 
  651.2065 
    6.3020     6.0400 
  651.3589 
    6.7340     6.3170 
  651.5113 
    6.9900     6.7100 
  651.6637 
    7.1150     7.4830 
  651.8161 
    7.1380     7.9530 
  651.9685 
    7.0270     8.0430 
  652.1209 
    6.8710     7.8670 
  652.2733 
    6.7140     7.5370 
  652.4257 
    6.5870     7.2180 
  652.5781 
    6.5370     7.0630 
  652.7305 
    6.5590     7.0040 
  652.8829 
    6.6550     7.1380 
  653.0353 
    6.8470     7.6670 
  653.1877 
    7.2230     8.3970 
  653.3401 
    7.6870     9.2160 
  653.4925 
    8.2720    10.1320 
  653.6449 
    9.1230    11.2540 
  653.7973 
   10.2060    12.3710 
  653.9497 
   11.0030    13.4500 
  654.1021 
   11.2910    14.5170 
  654.2545 
   10.9520    14.7930 
  654.4069 
   10.6670    14.6080 
  654.5593 
   10.1330    13.4630 
  654.7117 
    9.6500    11.9380 
  654.8641 
    9.0470    10.5420 
  655.0165 
    8.5000     9.1760 
  655.1689 
    7.8410     7.8090 
  655.3213 
    7.2010     6.8310 
  655.4737 
    6.7250     6.8480 
  655.6261 
    6.4200     6.9170 
  655.7785 
    6.3340     7.0700 
  655.9309 
    6.6850     7.2460 
  656.0833 
    7.3190     7.4270 
  656.2357 
    8.1540     7.6040 
  656.3881 
    8.7780     7.7450 
  656.5405 
    8.8370     7.5420 
  656.6929 
    8.1310     7.1590 
  656.8453 
    7.0250     6.6460 
  656.9977 
    6.1130     6.0940 
  657.1501 
    5.6960     5.5630 
  657.3025 
    5.3880     5.0840 
  657.4549 
    5.2110     4.6630 
  657.6073 
    5.0770     4.4000 
  657.7597 
    5.0250     4.1390 
  657.9121 
    4.9730     3.9920 
  658.0645 
    4.9330     3.9600 
  658.2169 
    4.8960     3.9300 
  658.3693 
    4.9130     4.0030 
  658.5217 
    4.9530     4.1110 
  658.6741 
    5.0520     4.2370 
  658.8265 
    5.3600     4.4820 
  658.9789 
    5.7940     4.8920 
  659.1313 
    6.5400     5.4480 
  659.2837 
    7.5810     6.4270 
  659.4361 
    8.9420     8.1060 
  659.5885 
   10.3380    10.2640 
  659.7409 
   11.4430    12.4220 
  659.8933 
   12.4070    14.7370 
  660.0457 
   13.0910    17.3090 
  660.1981 
   13.6330    19.3930 
  660.3505 
   13.5860    20.8990 
  660.5029 
   13.2560    20.5090 
  660.6553 
   12.6080    18.5020 
  660.8077 
   11.8590    16.5000 
  660.9601 
   10.9890    14.6080 
  661.1125 
    9.9440    13.0200 
  661.2649 
    9.0620    11.5150 
  661.4173 
    8.4310    10.0100 
  661.5697 
    7.7580     8.5040 
  661.7221 
    7.1880     7.4690 
  661.8745 
    6.7480     6.7140 
  662.0269 
    6.3150     5.9590 
  662.1793 
    5.9270     5.2040 
  662.3317 
    5.5160     4.4490 
  662.4841 
    5.1280     4.0300 
  662.6365 
    4.8360     3.7760 
  662.7889 
    4.6750     3.5760 
  662.9413 
    4.5980     3.5920 
  663.0937 
    4.7390     3.7300 
  663.2461 
    5.0410     4.0680 
  663.3985 
    5.7690     4.7150 
  663.5509 
    6.6310     5.3590 
  663.7033 
    8.4420     6.2270 
  663.8557 
    9.9970     7.5200 
  664.0081 
   11.3120     9.4700 
  664.1605 
   12.3590    12.0290 
  664.3129 
   13.0500    15.1460 
  664.4653 
   13.6330    18.2010 
  664.6177 
   14.0680    20.0000 
  664.7701 
   14.1570    20.3690 
  664.9225 
   14.0940    20.5630 
  665.0749 
   13.9820    20.6380 
  665.2273 
   13.8060    20.3630 
  665.3797 
   13.5480    19.8340 
  665.5321 
   13.1350    19.0850 
  665.6845 
   12.6500    18.0060 
  665.8369 
   12.1280    16.9070 
  665.9893 
   11.6560    15.8310 
  666.1417 
   11.2060    14.6500 
  666.2941 
   10.7360    13.4630 
  666.4465 
   10.2130    12.0280 
  666.5989 
    9.4970    10.1440 
  666.7513 
    8.5210     8.2620 
  666.9037 
    7.6000     6.3790 
  667.0561 
    6.5640     5.4340 
  667.2085 
    5.6060     4.7350 
  667.3609 
    4.9050     4.0370 
  667.5133 
    4.3730     3.5830 
  667.6657 
    4.1280     3.2750 
  667.8181 
    3.9540     3.1190 
  667.9705 
    3.9790     3.0330 
  668.1229 
    4.1860     2.9990 
  668.2753 
    4.3320     3.0370 
  668.4277 
    4.4000     3.0940 
  668.5801 
    4.3780     3.1640 
  668.7325 
    4.3210     3.2400 
  668.8849 
    4.2910     3.3480 
  669.0373 
    4.3010     3.4800 
  669.1897 
    4.3490     3.6260 
  669.3421 
    4.5230     3.7750 
  669.4945 
    4.8040     3.9200 
  669.6469 
    5.0400     4.0350 
  669.7993 
    5.1630     4.1490 
  669.9517 
    5.2130     4.2640 
  670.1041 
    5.2130     4.4300 
  670.2565 
    5.1830     4.6070 
  670.4089 
    5.1480     4.7830 
  670.5613 
    5.2480     4.9600 
  670.7137 
    5.5230     5.1820 
  670.8661 
    5.9080     5.4060 
  671.0185 
    6.2960     5.6220 
  671.1709 
    6.7290     5.8810 
  671.3233 
    7.1790     6.1980 
  671.4757 
    7.5220     6.6640 
  671.6281 
    7.7970     7.1960 
  671.7805 
    7.9900     7.6270 
  671.9329 
    8.0930     7.9050 
  672.0853 
    8.0110     8.0260 
  672.2377 
    7.7300     8.0930 
  672.3901 
    7.4590     8.0380 
  672.5425 
    7.2440     7.9880 
  672.6949 
    7.1220     7.9410 
  672.8473 
    7.0930     7.8920 
  672.9997 
    7.1830     8.0930 
  673.1521 
    7.4000     8.5590 
  673.3045 
    7.6600     9.0620 
  673.4569 
    8.0490     9.5370 
  673.6093 
    8.6960     9.9690 
  673.7617 
    9.2350    10.2110 
  673.9141 
    9.2350    10.1720 
  674.0665 
    8.7470    10.0420 
  674.2189 
    8.2000     9.6500 
  674.3713 
    7.4430     8.4370 
  674.5237 
    6.7910     7.4220 
  674.6761 
    6.2870     6.7500 
  674.8285 
    5.8860     6.1830 
  674.9809 
    5.5680     5.7400 
  675.1334 
    5.3080     5.3170 
  675.2858 
    5.1440     5.0580 
  675.4382 
    5.0570     4.8470 
  675.5906 
    5.0210     4.7210 
  675.7430 
    5.0210     4.5960 
  675.8954 
    5.0020     4.4620 
  676.0478 
    4.9680     4.3220 
  676.2002 
    4.9050     4.2010 
  676.3526 
    4.7370     4.0920 
  676.5050 
    4.5590     3.9830 
  676.6574 
    4.3970     3.8790 
  676.8098 
    4.3390     3.7800 
  676.9622 
    4.2970     3.6810 
  677.1146 
    4.2640     3.5970 
  677.2670 
    4.3080     3.4870 
  677.4194 
    4.3750     3.4980 
  677.5718 
    4.4280     3.5310 
  677.7242 
    4.3960     3.6260 
  677.8766 
    4.3730     3.7410 
  678.0290 
    4.4550     3.8560 
  678.1814 
    4.6260     3.9290 
  678.3338 
    4.8480     4.0090 
  678.4862 
    5.0520     4.1440 
  678.6386 
    5.1650     4.3850 
  678.7910 
    5.3650     4.7170 
  678.9434 
    5.6090     5.1480 
  679.0958 
    5.9650     5.8730 
  679.2482 
    6.5630     6.9570 
  679.4006 
    7.4140     8.0140 
  679.5530 
    8.5090     9.2760 
  679.7054 
    9.7280    10.8050 
  679.8578 
   10.7050    12.2340 
  680.0102 
   11.2930    13.7050 
  680.1626 
   11.7210    15.1700 
  680.3150 
   12.0580    15.9250 
  680.4674 
   12.3650    16.6500 
  680.6198 
   12.6090    17.3090 
  680.7722 
   12.7230    17.5280 
  680.9246 
   12.7230    17.3180 
  681.0770 
   12.6110    16.9140 
  681.2294 
   12.3860    16.4610 
  681.3818 
   12.0780    15.5810 
  681.5342 
   11.7250    14.7390 
  681.6866 
   11.3360    14.0250 
  681.8390 
   10.9360    13.5350 
  681.9914 
   10.6450    13.4070 
  682.1438 
   10.6040    13.3780 
  682.2962 
   11.0910    13.6680 
  682.4486 
   11.5910    14.0940 
  682.6010 
   12.0910    14.7110 
