~Version Information
 VERS.                  2.0:   CWLS log ASCII Standard -VERSION 2.0
 WRAP.                  YES:   Multiple lines per depth step
~Well Information Block
#MNEM.UNIT       Data Type    Information
#---------     -----------    ---------------------------
 STRT.M                19.6596:
 STOP.M              2365.8623:
 STEP.M                 0.1524:
 NULL.               -999.2500:
 WELL-NAME.             CASN-1:  COMMON WELL NAME
 COMPANY.            ECOPETROL:  WELL OPERATOR
 FIELD-NAME.    CASTILLA NORTE:  FIELD
 COUN.                 ACACIAS:  COUNTY
 STAT.                    META:  STATE
 UWI .                CASN0001:  UWI
 CWN .                  CASN-1:  COMMON WELL NAME
 WELL.        CASTILLA NORTE-1:  WELL NAME
 LSRV.              PETROWORKS:  LOG NAME
 PASI.                    NONE:  LOG PASS ID
 PAST.                 UNKNOWN:  LOG PASS TYPE
 LATI.DEG             3.873520:  LATITUDE
 LONG.DEG           -73.628010:  LONGITUDE
 TD  .M            2392.684814:  TOTAL DEPTH
 RUN .                      -1:  LOG RUN NO
~Parameter Information Block
#MNEM.UNIT       Value        Description
#---------     -----------    ---------------------------
~Curve Information Block
#MNEM.UNIT                 API CODE     Curve Description
#---------               -----------    ---------------------------
 DEPTH.M                00 000 000 000:  Index Curve
 RS  .OHMM              00 000 000 000:  Resistivity; shallow
 RD  .OHMM              00 000 000 000:  Resistivity; deep
~A 
# ...
 2183.4392 
 1463.4960  3898.7729 
 2183.5916 
 1453.6980  3904.5459 
 2183.7440 
 1432.0320  3860.1699 
 2183.8964 
 1405.4561  3766.6431 
 2184.0488 
 1376.3840  3673.1169 
 2184.2012 
 1347.3130  3579.5901 
 2184.3536 
 1318.2410  3486.0630 
 2184.5060 
 1289.1689  3392.5359 
 2184.6584 
 1273.2170  3299.0090 
 2184.8108 
 1272.0830  3239.5859 
 2184.9632 
 1270.9500  3243.6721 
 2185.1156 
 1269.8160  3246.6660 
 2185.2680 
 1268.6820  3249.6609 
 2185.4204 
 1267.5480  3252.6550 
 2185.5728 
 1266.4139  3255.6499 
 2185.7252 
 1264.1650  3259.6431 
 2185.8776 
 1260.7990  3249.6970 
 2186.0300 
 1256.3320  3212.1841 
 2186.1824 
 1246.3600  3141.7219 
 2186.3348 
 1236.3879  3071.2600 
 2186.4872 
 1209.5630  3000.7981 
 2186.6396 
 1179.3680  2930.3359 
 2186.7920 
 1149.1730  2859.8750 
 2186.9444 
 1118.9780  2789.4131 
 2187.0968 
 1104.2510  2717.5491 
 2187.2492 
 1113.9010  2652.0310 
 2187.4016 
 1120.5820  2636.4780 
 2187.5540 
 1127.2629  2622.6521 
 2187.7064 
 1133.9430  2659.2729 
 2187.8588 
 1142.0300  2694.7849 
 2188.0112 
 1153.7729  2757.6440 
 2188.1636 
 1165.5150  2831.0200 
 2188.3160 
 1177.2570  2904.3970 
 2188.4684 
 1189.0000  2977.7729 
 2188.6208 
 1200.7419  3051.1489 
 2188.7732 
 1212.4850  3124.5249 
 2188.9256 
 1224.2271  3199.5139 
 2189.0780 
 1229.5900  3236.8049 
 2189.2304 
 1232.9200  3274.9341 
 2189.3828 
 1236.2500  3313.0620 
 2189.5352 
 1239.5800  3347.5149 
 2189.6876 
 1242.4340  3370.4399 
 2189.8400 
 1230.8960  3393.3640 
 2189.9924 
 1220.8000  3404.9529 
 2190.1448 
 1210.7040  3342.4810 
 2190.2972 
 1200.6090  3300.6799 
 2190.4496 
 1190.5129  3258.8779 
 2190.6020 
 1180.4170  3199.1899 
 2190.7544 
 1171.1270  3124.1680 
 2190.9068 
 1162.8621  3049.1470 
 2191.0592 
 1148.4380  2961.3860 
 2191.2116 
 1131.7040  2867.6660 
 2191.3640 
 1097.8719  2744.5710 
 2191.5164 
 1065.1200  2619.0271 
 2191.6688 
 1032.3680  2493.4839 
 2191.8212 
  999.2600  2367.9399 
 2191.9736 
 1003.6270  2242.3970 
 2192.1260 
 1017.4170  2221.2820 
 2192.2784 
 1038.1050  2216.2800 
 2192.4308 
 1058.7939  2260.1919 
 2192.5832 
 1079.4830  2300.3621 
 2192.7356 
 1100.1710  2340.5320 
 2192.8880 
 1120.8600  2380.7019 
 2193.0404 
 1124.6830  2403.0330 
 2193.1928 
 1097.0320  2338.1121 
 2193.3452 
 1066.6980  2170.8589 
 2193.4976 
  998.5510  1976.4170 
 2193.6500 
  912.9480  1694.5959 
 2193.8024 
  791.6720  1305.8210 
 2193.9548 
  655.5800   992.8510 
 2194.1072 
  519.4870   694.6470 
 2194.2596 
  383.3940   535.7320 
 2194.4120 
  302.3530   418.0140 
 2194.5644 
  287.7750   346.8340 
 2194.7168 
  272.3980   324.2590 
 2194.8692 
  255.8160   304.4120 
 2195.0216 
  239.2340   287.8310 
 2195.1740 
  234.3950   284.2710 
 2195.3264 
  232.9410   430.4790 
 2195.4788 
  379.9280   669.6400 
 2195.6312 
  495.5630   908.8020 
 2195.7836 
  614.9900  1147.9630 
 2195.9360 
  793.3060  1415.0060 
 2196.0884 
  977.6680  1792.0710 
 2196.2408 
 1162.0291  2141.7539 
 2196.3932 
 1279.9340  2448.6570 
 2196.5456 
 1360.1071  2755.5601 
 2196.6980 
 1409.9590  2906.5649 
 2196.8504 
 1433.6240  2959.0100 
 2197.0028 
 1424.7300  2969.2830 
 2197.1552 
 1387.8090  2895.6521 
 2197.3076 
 1350.4800  2834.6809 
 2197.4600 
 1313.1510  2773.7100 
 2197.6124 
 1275.8220  2712.7390 
 2197.7648 
 1238.4930  2621.7881 
 2197.9172 
 1208.8199  2636.6799 
 2198.0696 
 1198.1440  2665.9780 
 2198.2220 
 1189.4720  2695.2759 
 2198.3744 
 1195.6130  2724.5740 
 2198.5268 
 1201.7360  2753.8721 
 2198.6792 
 1208.1750  2783.1709 
 2198.8316 
 1214.6140  2831.8589 
 2198.9840 
 1221.0530  2886.5879 
 2199.1364 
 1227.4919  2941.3181 
 2199.2888 
 1233.9310  2996.0471 
 2199.4412 
 1242.4340  3044.1250 
 2199.5936 
 1239.8000  3029.3789 
 2199.7460 
 1235.9250  2961.5281 
 2199.8984 
 1219.3950  2868.5300 
 2200.0508 
 1197.1960  2775.5310 
 2200.2032 
 1174.9969  2682.5330 
 2200.3556 
 1152.7990  2589.5349 
 2200.5080 
 1131.7040  2496.5371 
 2200.6604 
 1135.9110  2403.5391 
 2200.8128 
 1139.9200  2359.3931 
 2200.9652 
 1145.8770  2324.9541 
 2201.1176 
 1142.4080  2298.8789 
 2201.2700 
 1135.6570  2293.0081 
 2201.4224 
 1120.8690  2287.1370 
 2201.5748 
 1093.0110  2221.8210 
 2201.7272 
 1030.3540  2037.7550 
 2201.8796 
  904.1670  1782.2850 
 2202.0320 
  749.9230  1482.1890 
 2202.1844 
  615.5010  1182.0930 
 2202.3368 
  489.3450   946.2690 
 2202.4892 
  379.4520   710.4460 
 2202.6416 
  302.9620   528.9600 
 2202.7940 
  273.6590   449.2520 
 2202.9464 
  258.9360   418.9820 
 2203.0988 
  254.8500   399.7570 
 2203.2512 
  250.8750   391.4240 
 2203.4036 
  246.8990   383.0920 
 2203.5560 
  242.9240   374.7600 
 2203.7084 
  235.7130   359.4260 
 2203.8608 
  227.2590   339.5720 
 2204.0132 
  218.8320   317.2040 
 2204.1656 
  203.5230   293.9020 
 2204.3180 
  186.9540   270.6010 
 2204.4704 
  173.6580   247.3000 
 2204.6228 
  161.4770   224.4040 
 2204.7752 
  152.5680   217.5290 
 2204.9276 
  151.6210   216.1790 
 2205.0800 
  197.3480   313.1020 
 2205.2324 
  319.9320   513.1130 
 2205.3848 
  442.5170   713.1240 
 2205.5372 
  565.1010   913.1340 
 2205.6896 
  692.8590  1113.1450 
 2205.8420 
  837.2180  1329.5660 
 2205.9944 
  971.3260  1575.9880 
 2206.1468 
 1030.8420  1643.9740 
 2206.2992 
 1011.7750  1623.6390 
 2206.4516 
  960.3160  1501.2581 
 2206.6040 
  894.2220  1370.6689 
 2206.7564 
  827.3450  1240.0811 
 2206.9088 
  760.4680  1109.4930 
 2207.0612 
  714.0570  1070.0610 
 2207.2136 
  720.7140  1083.4620 
 2207.3660 
  749.5690  1218.4860 
 2207.5184 
  805.9680  1354.2510 
 2207.6708 
  839.4660  1460.6410 
 2207.8232 
  822.2030  1460.6410 
 2207.9756 
  780.7280  1422.5190 
 2208.1280 
  689.6590  1258.5940 
 2208.2804 
  601.7710  1075.2469 
 2208.4328 
  513.8830   891.9000 
 2208.5852 
  425.9940   708.5530 
 2208.7376 
  373.8110   560.1800 
 2208.8900 
  375.6050   539.6490 
 2209.0424 
  381.5130   539.6490 
 2209.1948 
  397.3090   568.8020 
 2209.3472 
  410.3860   596.1480 
 2209.4996 
  403.0120   568.1230 
 2209.6520 
  371.4760   526.7630 
 2209.8044 
  335.5980   485.4040 
 2209.9568 
  312.0850   439.4630 
 2210.1092 
  310.1490   436.7360 
 2210.2616 
  364.1810   459.9400 
 2210.4140 
  406.8160   515.0440 
 2210.5664 
  447.0050   570.1480 
 2210.7188 
  488.5040   614.9130 
 2210.8712 
  523.6040   655.8200 
 2211.0236 
  559.8880   696.7270 
 2211.1760 
  596.1710   757.7460 
 2211.3284 
  634.4270   841.6840 
 2211.4808 
  717.1590   925.6220 
 2211.6332 
  804.6470  1009.5600 
 2211.7856 
  892.1350  1090.2260 
 2211.9380 
  921.6020  1097.0320 
 2212.0904 
  921.6020  1073.4010 
 2212.2428 
  859.9090   989.5050 
 2212.3952 
  737.8090   855.1830 
 2212.5476 
  608.0180   703.9000 
 2212.7000 
  478.2270   552.6170 
 2212.8524 
  383.2330   425.9990 
 2213.0048 
  373.8110   407.8400 
 2213.1572 
  431.0560   407.8400 
 2213.3096 
  688.0240   778.0200 
 2213.4620 
  944.9920  1149.0850 
 2213.6144 
 1201.9600  1520.1490 
 2213.7668 
 1499.5980  1891.2140 
 2213.9192 
 1773.9960  2069.6399 
 2214.0716 
 1873.4910  2198.6250 
 2214.2240 
 1873.4910  2286.3259 
 2214.3764 
 1690.1479  2097.5420 
 2214.5288 
 1562.5129  1908.7970 
 2214.6812 
 1488.1670  1955.6700 
 2214.8336 
 1568.9470  2046.5280 
 2214.9860 
 1823.1940  2300.4009 
 2215.1384 
 2009.3000  2618.3770 
 2215.2908 
 2123.6360  2936.3540 
 2215.4432 
 2288.0300  3179.6650 
 2215.5956 
 2343.9529  3239.5859 
 2215.7480 
 2317.6179  3116.6899 
 2215.9004 
 2205.2419  2967.5791 
 2216.0528 
 2088.4250  2722.8811 
 2216.2052 
 1905.4160  2415.9031 
 2216.3576 
 1644.7939  2042.5850 
 2216.5100 
 1470.1541  1677.8220 
 2216.6624 
 1295.5140  1333.6071 
 2216.8148 
 1120.8740  1170.4740 
 2216.9672 
  962.6370  1037.2770 
 2217.1196 
  956.6650  1037.2770 
 2217.2720 
 1304.3290  1343.9821 
 2217.4244 
 1637.6479  1760.6190 
 2217.5768 
 1969.1250  2351.8120 
 2217.7292 
 2136.7490  3112.1650 
 2217.8816 
 2582.5730  3872.5190 
 2218.0340 
 2987.8191  4453.4722 
 2218.1864 
 3044.1250  4685.1011 
