~Version Information
 VERS.                  2.0:   CWLS log ASCII Standard -VERSION 2.0
 WRAP.                  YES:   Multiple lines per depth step
~Well Information Block
#MNEM.UNIT       Data Type    Information
#---------     -----------    ---------------------------
 STRT.M                19.6596:
 STOP.M              2365.8623:
 STEP.M                 0.1524:
 NULL.               -999.2500:
 WELL-NAME.             CASN-1:  COMMON WELL NAME
 COMPANY.            ECOPETROL:  WELL OPERATOR
 FIELD-NAME.    CASTILLA NORTE:  FIELD
 COUN.                 ACACIAS:  COUNTY
 STAT.                    META:  STATE
 UWI .                CASN0001:  UWI
 CWN .                  CASN-1:  COMMON WELL NAME
 WELL.        CASTILLA NORTE-1:  WELL NAME
 LSRV.              PETROWORKS:  LOG NAME
 PASI.                    NONE:  LOG PASS ID
 PAST.                 UNKNOWN:  LOG PASS TYPE
 LATI.DEG             3.873520:  LATITUDE
 LONG.DEG           -73.628010:  LONGITUDE
 TD  .M            2392.684814:  TOTAL DEPTH
 RUN .                      -1:  LOG RUN NO
~Parameter Information Block
#MNEM.UNIT       Value        Description
#---------     -----------    ---------------------------
~Curve Information Block
#MNEM.UNIT                 API CODE     Curve Description
#---------               -----------    ---------------------------
 DEPTH.M                00 000 000 000:  Index Curve
 RS  .OHMM              00 000 000 000:  Resistivity; shallow
 RD  .OHMM              00 000 000 000:  Resistivity; deep
~A 
# ...
 1694.8438 
    6.5780     4.3710 
 1694.9962 
    6.4980     4.4280 
 1695.1486 
    6.2820     4.3030 
 1695.3010 
    5.8010     3.9540 
 1695.4534 
    4.9920     3.4470 
 1695.6058 
    4.1000     2.9700 
 1695.7582 
    3.3980     2.5960 
 1695.9106 
    3.0750     2.3620 
 1696.0630 
    2.8950     2.2260 
 1696.2154 
    2.8170     2.1260 
 1696.3678 
    2.8720     2.0960 
 1696.5202 
    2.9930     2.1050 
 1696.6726 
    3.2570     2.1170 
 1696.8250 
    3.5610     2.1360 
 1696.9774 
    3.8320     2.1180 
 1697.1298 
    3.8560     2.0930 
 1697.2822 
    3.3060     2.0550 
 1697.4346 
    2.9770     1.9920 
 1697.5870 
    2.7470     1.8960 
 1697.7394 
    2.6320     1.8040 
 1697.8918 
    2.5900     1.7250 
 1698.0442 
    2.5790     1.6570 
 1698.1966 
    2.5840     1.6320 
 1698.3490 
    2.5940     1.6000 
 1698.5014 
    2.6040     1.6070 
 1698.6538 
    2.6120     1.6170 
 1698.8062 
    2.6120     1.6260 
 1698.9586 
    2.6120     1.6370 
 1699.1110 
    2.6270     1.6490 
 1699.2634 
    2.6430     1.6600 
 1699.4158 
    2.6550     1.6720 
 1699.5682 
    2.6670     1.6840 
 1699.7206 
    2.6790     1.6950 
 1699.8730 
    2.6970     1.7070 
 1700.0254 
    2.7150     1.7220 
 1700.1778 
    2.7360     1.7420 
 1700.3302 
    2.7730     1.7610 
 1700.4826 
    2.8090     1.7810 
 1700.6350 
    2.8460     1.8530 
 1700.7874 
    2.9020     1.9200 
 1700.9398 
    2.9770     1.9970 
 1701.0922 
    3.1190     2.1790 
 1701.2446 
    3.5120     2.4300 
 1701.3970 
    4.0970     2.6590 
 1701.5494 
    4.9000     2.8820 
 1701.7018 
    5.6700     3.0250 
 1701.8542 
    5.8740     3.1340 
 1702.0066 
    5.1480     3.1000 
 1702.1590 
    4.1790     2.9820 
 1702.3114 
    3.6270     2.7560 
 1702.4638 
    3.1960     2.5020 
 1702.6162 
    2.9880     2.2470 
 1702.7686 
    2.8760     2.0500 
 1702.9210 
    2.8260     1.9080 
 1703.0734 
    2.7890     1.8370 
 1703.2258 
    2.7670     1.7890 
 1703.3782 
    2.7450     1.7630 
 1703.5306 
    2.7240     1.7530 
 1703.6830 
    2.6990     1.7400 
 1703.8354 
    2.6730     1.7240 
 1703.9878 
    2.6460     1.7070 
 1704.1402 
    2.6190     1.6870 
 1704.2926 
    2.5930     1.6680 
 1704.4450 
    2.5740     1.6530 
 1704.5974 
    2.5630     1.6410 
 1704.7498 
    2.5470     1.6410 
 1704.9022 
    2.5630     1.6480 
 1705.0546 
    2.5890     1.6740 
 1705.2070 
    2.6210     1.7000 
 1705.3594 
    2.6560     1.7240 
 1705.5118 
    2.7200     1.7470 
 1705.6642 
    2.8170     1.7760 
 1705.8166 
    2.8030     1.8020 
 1705.9690 
    2.7470     1.8290 
 1706.1214 
    2.6980     1.8560 
 1706.2738 
    2.6450     1.8800 
 1706.4262 
    2.6120     1.9010 
 1706.5786 
    2.6320     1.9200 
 1706.7310 
    2.6920     1.9310 
 1706.8834 
    2.7820     1.9410 
 1707.0358 
    2.9070     1.9440 
 1707.1882 
    2.8740     1.9440 
 1707.3406 
    2.7940     1.9430 
 1707.4930 
    2.7210     1.9380 
 1707.6454 
    2.6790     1.9330 
 1707.7978 
    2.6980     1.9080 
 1707.9502 
    2.7310     1.8800 
 1708.1026 
    2.7470     1.8610 
 1708.2550 
    2.7410     1.8610 
 1708.4074 
    2.6940     1.8760 
 1708.5598 
    2.6790     1.9050 
 1708.7122 
    2.6850     1.9680 
 1708.8646 
    2.7410     2.0190 
 1709.0170 
    2.8320     2.0700 
 1709.1694 
    2.9430     2.0960 
 1709.3218 
    3.0370     2.0240 
 1709.4742 
    3.0370     1.9930 
 1709.6266 
    2.9620     1.9660 
 1709.7790 
    2.7710     1.9380 
 1709.9314 
    2.6270     1.9110 
 1710.0838 
    2.5690     1.8830 
 1710.2362 
    2.5310     1.8190 
 1710.3886 
    2.5310     1.7580 
 1710.5410 
    2.5310     1.7080 
 1710.6934 
    2.5310     1.6830 
 1710.8458 
    2.5230     1.6580 
 1710.9982 
    2.5060     1.6400 
 1711.1506 
    2.4900     1.6240 
 1711.3030 
    2.4730     1.6080 
 1711.4554 
    2.4590     1.5920 
 1711.6078 
    2.4440     1.5760 
 1711.7602 
    2.4240     1.5610 
 1711.9126 
    2.4010     1.5460 
 1712.0650 
    2.3800     1.5310 
 1712.2174 
    2.3620     1.5520 
 1712.3698 
    2.3840     1.5720 
 1712.5222 
    2.4160     1.5900 
 1712.6746 
    2.4530     1.6070 
 1712.8270 
    2.5060     1.6230 
 1712.9794 
    2.5520     1.6410 
 1713.1318 
    2.5960     1.6410 
 1713.2842 
    2.5960     1.6410 
 1713.4366 
    2.5360     1.6410 
 1713.5890 
    2.4590     1.6390 
 1713.7414 
    2.4030     1.6360 
 1713.8938 
    2.3910     1.6320 
 1714.0462 
    2.3770     1.6310 
 1714.1986 
    2.4110     1.6440 
 1714.3510 
    2.4640     1.6580 
 1714.5034 
    2.5240     1.6990 
 1714.6558 
    2.5860     1.7410 
 1714.8082 
    2.6150     1.7670 
 1714.9606 
    2.6290     1.7900 
 1715.1130 
    2.6290     1.8050 
 1715.2654 
    2.6080     1.8090 
 1715.4178 
    2.5860     1.8140 
 1715.5702 
    2.5650     1.8030 
 1715.7226 
    2.5460     1.7910 
 1715.8750 
    2.5310     1.7800 
 1716.0274 
    2.5310     1.7760 
 1716.1798 
    2.5310     1.7720 
 1716.3322 
    2.5410     1.7690 
 1716.4846 
    2.5640     1.7690 
 1716.6370 
    2.5790     1.7690 
 1716.7894 
    2.5500     1.7690 
 1716.9418 
    2.5390     1.7690 
 1717.0942 
    2.5310     1.7690 
 1717.2466 
    2.5570     1.7690 
 1717.3990 
    2.5710     1.7690 
 1717.5514 
    2.5790     1.7690 
 1717.7038 
    2.5550     1.7690 
 1717.8562 
    2.5410     1.7690 
 1718.0086 
    2.5310     1.7690 
 1718.1610 
    2.5420     1.7690 
 1718.3134 
    2.5530     1.7620 
 1718.4658 
    2.5630     1.7550 
 1718.6182 
    2.5360     1.7480 
 1718.7706 
    2.5120     1.7440 
 1718.9230 
    2.5000     1.7390 
 1719.0754 
    2.5080     1.7360 
 1719.2278 
    2.5560     1.7580 
 1719.3802 
    2.5900     1.7740 
 1719.5326 
    2.6250     1.7940 
 1719.6850 
    2.6680     1.8150 
 1719.8374 
    2.6870     1.8370 
 1719.9898 
    2.6950     1.8520 
 1720.1422 
    2.6820     1.8720 
 1720.2946 
    2.6580     1.8650 
 1720.4470 
    2.6220     1.8550 
 1720.5994 
    2.5310     1.8400 
 1720.7518 
    2.5370     1.8140 
 1720.9042 
    2.5460     1.8230 
 1721.0566 
    2.5550     1.8350 
 1721.2090 
    2.5760     1.8570 
 1721.3614 
    2.6570     1.8820 
 1721.5138 
    2.7070     1.9200 
 1721.6662 
    2.7120     1.9600 
 1721.8186 
    2.7870     2.0010 
 1721.9710 
    2.8540     2.0420 
 1722.1234 
    2.8880     2.0670 
 1722.2758 
    2.8870     2.0880 
 1722.4282 
    2.8700     2.1100 
 1722.5806 
    2.8520     2.1000 
 1722.7330 
    2.8360     2.0850 
 1722.8854 
    2.8190     2.0800 
 1723.0378 
    2.8170     2.0760 
 1723.1902 
    2.8170     2.0720 
 1723.3426 
    2.7680     2.0440 
 1723.4950 
    2.7190     2.0230 
 1723.6474 
    2.6950     2.0060 
 1723.7998 
    2.6950     1.9770 
 1723.9522 
    2.7390     1.9710 
 1724.1046 
    2.7780     1.9650 
 1724.2570 
    2.7990     1.9580 
 1724.4094 
    2.7670     1.9520 
 1724.5618 
    2.7290     1.9460 
 1724.7142 
    2.7050     1.9390 
 1724.8666 
    2.6950     1.9320 
 1725.0191 
    2.7610     1.9490 
 1725.1715 
    2.8140     1.9690 
 1725.3239 
    2.8430     1.9830 
 1725.4763 
    2.8520     1.9950 
 1725.6287 
    2.7920     2.0020 
 1725.7811 
    2.7470     2.0090 
 1725.9335 
    2.6810     2.0170 
 1726.0859 
    2.6620     2.0240 
 1726.2383 
    2.6710     2.0320 
 1726.3907 
    2.6950     2.0550 
 1726.5431 
    2.7520     2.0800 
 1726.6955 
    2.8160     2.1060 
 1726.8479 
    2.8880     2.1140 
 1727.0003 
    2.9790     2.1200 
 1727.1527 
    3.0370     2.1230 
 1727.3051 
    2.9660     2.0930 
 1727.4575 
    2.9000     2.0700 
 1727.6099 
    2.8300     2.0320 
 1727.7623 
    2.7590     1.9690 
 1727.9147 
    2.7300     1.9200 
 1728.0671 
    2.6620     1.8760 
 1728.2195 
    2.6380     1.8490 
 1728.3719 
    2.6220     1.8210 
 1728.5243 
    2.6120     1.7940 
 1728.6767 
    2.6120     1.7720 
 1728.8291 
    2.6010     1.7570 
 1728.9815 
    2.5790     1.7470 
 1729.1339 
    2.5690     1.7520 
 1729.2863 
    2.5630     1.7990 
 1729.4387 
    2.5920     1.8490 
 1729.5911 
    2.6620     1.9440 
