~Version Information
 VERS.                  2.0:   CWLS log ASCII Standard -VERSION 2.0
 WRAP.                  YES:   Multiple lines per depth step
~Well Information Block
#MNEM.UNIT       Data Type    Information
#---------     -----------    ---------------------------
 STRT.M                19.6596:
 STOP.M              2365.8623:
 STEP.M                 0.1524:
 NULL.               -999.2500:
 WELL-NAME.             CASN-1:  COMMON WELL NAME
 COMPANY.            ECOPETROL:  WELL OPERATOR
 FIELD-NAME.    CASTILLA NORTE:  FIELD
 COUN.                 ACACIAS:  COUNTY
 STAT.                    META:  STATE
 UWI .                CASN0001:  UWI
 CWN .                  CASN-1:  COMMON WELL NAME
 WELL.        CASTILLA NORTE-1:  WELL NAME
 LSRV.              PETROWORKS:  LOG NAME
 PASI.                    NONE:  LOG PASS ID
 PAST.                 UNKNOWN:  LOG PASS TYPE
 LATI.DEG             3.873520:  LATITUDE
 LONG.DEG           -73.628010:  LONGITUDE
 TD  .M            2392.684814:  TOTAL DEPTH
 RUN .                      -1:  LOG RUN NO
~Parameter Information Block
#MNEM.UNIT       Value        Description
#---------     -----------    ---------------------------
~Curve Information Block
#MNEM.UNIT                 API CODE     Curve Description
#---------               -----------    ---------------------------
 DEPTH.M                00 000 000 000:  Index Curve
 RS  .OHMM              00 000 000 000:  Resistivity; shallow
 RD  .OHMM              00 000 000 000:  Resistivity; deep
~A 
# ...
 2323.0378 
  215.0170   503.5390 
 2323.1902 
  210.1450   491.5530 
 2323.3426 
  207.7210   491.5530 
 2323.4950 
  205.6340   491.5530 
 2323.6474 
  203.5460   491.5530 
 2323.7998 
  201.4590   491.5530 
 2323.9522 
  199.3720   491.5530 
 2324.1046 
  197.2840   495.9180 
 2324.2570 
  195.1970   502.0290 
 2324.4094 
  192.9220   508.1400 
 2324.5618 
  188.3920   514.2510 
 2324.7142 
  183.8620   523.1150 
 2324.8666 
  179.3320   519.2740 
 2325.0191 
  174.8020   512.2840 
 2325.1715 
  170.2720   505.2930 
 2325.3239 
  165.7410   498.3020 
 2325.4763 
  162.3640   491.3110 
 2325.6287 
  162.3640   485.4730 
 2325.7811 
  162.9950   490.9330 
 2325.9335 
  163.4510   497.7100 
 2326.0859 
  163.9070   496.5360 
 2326.2383 
  164.3970   494.4180 
 2326.3907 
  164.0570   492.3010 
 2326.5431 
  163.6890   490.1840 
 2326.6955 
  163.3210   488.5040 
 2326.8479 
  162.9530   490.8450 
 2327.0003 
  162.5850   492.7860 
 2327.1527 
  162.2170   494.6220 
 2327.3051 
  161.8490   489.8690 
 2327.4575 
  161.4810   485.3620 
 2327.6099 
  160.5420   480.8540 
 2327.7623 
  159.3120   476.4940 
 2327.9147 
  158.0830   468.5100 
 2328.0671 
  156.8540   460.7790 
 2328.2195 
  154.9230   453.0480 
 2328.3719 
  152.5990   445.3170 
 2328.5243 
  150.2740   437.5850 
 2328.6767 
  147.9500   429.8540 
 2328.8291 
  145.6260   422.1230 
 2328.9815 
  143.3020   414.3920 
 2329.1339 
  140.9780   406.6610 
 2329.2863 
  138.6540   400.7700 
 2329.4387 
  136.3300   395.5620 
 2329.5911 
  134.0060   390.3540 
 2329.7435 
  131.6820   385.1470 
 2329.8959 
  129.3580   379.9390 
 2330.0483 
  128.0840   370.7200 
 2330.2007 
  127.0200   359.9590 
 2330.3531 
  125.9570   349.1970 
 2330.5055 
  124.8930   338.8690 
 2330.6579 
  123.5310   329.2220 
 2330.8103 
  121.6980   319.5740 
 2330.9627 
  118.9840   301.7360 
 2331.1151 
  115.3750   282.2590 
 2331.2675 
  113.2250   275.5620 
 2331.4199 
  114.5330   275.5620 
 2331.5723 
  122.2210   295.0920 
 2331.7247 
  131.7120   314.8760 
 2331.8771 
  141.2030   333.8800 
 2332.0295 
  150.6940   352.8830 
 2332.1819 
  160.1850   371.8870 
 2332.3343 
  168.4320   387.5620 
 2332.4867 
  175.1440   402.2780 
 2332.6391 
  181.1940   416.9930 
 2332.7915 
  186.1220   426.9610 
 2332.9439 
  188.9810   429.4400 
 2333.0963 
  189.8810   431.9190 
 2333.2487 
  190.7810   434.3990 
 2333.4011 
  193.6180   436.8780 
 2333.5535 
  196.6920   439.3570 
 2333.7059 
  200.6230   441.8370 
 2333.8583 
  200.0300   444.9660 
 2334.0107 
  199.0600   440.0100 
 2334.1631 
  198.0910   433.2910 
 2334.3155 
  197.1210   426.5730 
 2334.4679 
  196.1510   419.8540 
 2334.6203 
  195.1820   413.1360 
 2334.7727 
  194.4770   406.4170 
 2334.9251 
  194.2970   394.3770 
 2335.0775 
  191.5690   380.8550 
 2335.2299 
  183.3990   364.4180 
 2335.3823 
  173.3880   345.2420 
 2335.5347 
  163.3770   326.0660 
 2335.6871 
  163.3770   316.6500 
 2335.8395 
  163.3770   313.6310 
 2335.9919 
  163.3770   313.0400 
 2336.1443 
  162.6500   312.4490 
 2336.2967 
  160.7040   307.4500 
 2336.4491 
  158.7580   295.3970 
 2336.6015 
  157.3900   284.2710 
 2336.7539 
  164.2000   293.9950 
 2336.9063 
  173.4070   303.0230 
 2337.0587 
  182.6130   312.0520 
 2337.2111 
  190.0790   323.9590 
 2337.3635 
  192.0710   322.8260 
 2337.5159 
  189.0920   317.4400 
 2337.6683 
  185.3770   307.8990 
 2337.8207 
  181.6630   298.3570 
 2337.9731 
  177.9480   288.8160 
 2338.1255 
  174.2340   279.2750 
 2338.2779 
  171.7170   271.8520 
 2338.4303 
  172.7890   268.7870 
 2338.5827 
  178.5210   277.3010 
 2338.7351 
  184.1910   285.9290 
 2338.8875 
  189.8600   294.5560 
 2339.0399 
  195.5180   302.7010 
 2339.1923 
  199.3790   305.0120 
 2339.3447 
  193.9190   306.3130 
 2339.4971 
  188.1140   297.2260 
 2339.6495 
  181.3840   284.8470 
 2339.8019 
  174.6540   272.4680 
 2339.9543 
  167.9240   260.0890 
 2340.1067 
  164.6660   247.7100 
 2340.2591 
  163.4600   238.8120 
 2340.4115 
  162.2540   240.3840 
 2340.5639 
  161.0480   242.4240 
 2340.7163 
  159.8420   244.8320 
 2340.8687 
  157.7770   243.8810 
 2341.0211 
  155.1430   240.7530 
 2341.1735 
  152.5090   234.3880 
 2341.3259 
  148.1980   228.0230 
 2341.4783 
  143.0360   221.6590 
 2341.6307 
  139.1410   215.2940 
 2341.7831 
  137.2510   211.4550 
 2341.9355 
  138.7580   209.5560 
 2342.0879 
  141.9070   211.0110 
 2342.2403 
  145.0560   215.6710 
 2342.3927 
  148.2050   223.1390 
 2342.5451 
  152.5530   230.6060 
 2342.6975 
  158.0480   238.0740 
 2342.8499 
  163.5440   245.5420 
 2343.0023 
  169.0390   253.0090 
 2343.1547 
  175.4130   260.4770 
 2343.3071 
  182.1510   267.9450 
 2343.4595 
  188.8900   275.4120 
 2343.6119 
  191.1760   286.0460 
 2343.7643 
  192.0710   283.7090 
 2343.9167 
  187.2860   278.1850 
 2344.0691 
  182.4950   268.7270 
 2344.2215 
  176.0300   259.2690 
 2344.3739 
  169.5640   249.4460 
 2344.5263 
  166.4560   251.0040 
 2344.6787 
  166.7970   252.6260 
 2344.8311 
  168.5610   254.2480 
 2344.9835 
  170.3240   255.8690 
 2345.1359 
  171.7170   257.3290 
 2345.2883 
  165.9740   248.0320 
 2345.4407 
  157.4180   236.7010 
 2345.5931 
  148.3620   221.7420 
 2345.7455 
  139.3060   206.7830 
 2345.8979 
  130.2540   192.0710 
 2346.0503 
  121.2340   183.7990 
 2346.2027 
  116.7600   175.6620 
 2346.3551 
  112.7260   168.6150 
 2346.5075 
  110.0060   164.7670 
 2346.6599 
  108.1950   162.3640 
 2346.8123 
  107.6740   164.3970 
 2346.9647 
  108.0130   163.9540 
 2347.1171 
  108.6930   163.3770 
 2347.2695 
  110.3010   170.0460 
 2347.4219 
  113.5500   176.3020 
 2347.5743 
  117.8710   182.5580 
 2347.7267 
  122.1920   188.8140 
 2347.8791 
  126.5130   195.0700 
 2348.0315 
  130.8340   201.3260 
 2348.1839 
  135.1550   205.8410 
 2348.3363 
  139.4760   210.1880 
 2348.4887 
  143.2200   214.5350 
 2348.6411 
  146.7320   218.8820 
 2348.7935 
  149.2760   223.2290 
 2348.9459 
  150.6800   227.5760 
 2349.0983 
  148.7570   230.0600 
 2349.2507 
  144.0790   219.1400 
 2349.4031 
  137.1360   211.4970 
 2349.5555 
  130.1940   203.8530 
 2349.7079 
  124.2430   198.1420 
 2349.8603 
  135.3400   212.1810 
 2350.0127 
  157.4170   242.6510 
 2350.1651 
  179.9180   271.8390 
 2350.3175 
  198.4200   302.5240 
 2350.4699 
  204.4040   312.0850 
 2350.6223 
  199.9930   312.0850 
 2350.7747 
  190.1320   288.8010 
 2350.9271 
  180.2710   268.7870 
 2351.0795 
  176.0450   262.1790 
 2351.2319 
  182.3900   273.3360 
 2351.3843 
  194.3660   289.4520 
 2351.5367 
  206.3420   305.5680 
 2351.6891 
  217.6310   316.4510 
 2351.8415 
  218.8870   319.9510 
 2351.9939 
  211.2160   315.9940 
 2352.1463 
  201.7740   304.4120 
 2352.2987 
  189.6630   286.4200 
 2352.4511 
  177.5520   268.1020 
 2352.6035 
  165.4420   249.7840 
 2352.7559 
  153.3310   231.4660 
 2352.9083 
  141.2210   213.1480 
 2353.0607 
  129.7750   201.8760 
 2353.2131 
  126.5850   203.6880 
 2353.3655 
  128.9310   204.9980 
 2353.5179 
  130.9190   206.3070 
 2353.6703 
  132.9070   207.6160 
 2353.8227 
  134.8950   208.9250 
 2353.9751 
  136.8830   210.2350 
 2354.1275 
  138.8710   211.5440 
 2354.2799 
  142.7710   216.0120 
 2354.4323 
  148.4800   225.4880 
 2354.5847 
  154.1890   234.9640 
 2354.7371 
  159.8990   244.4400 
 2354.8895 
  165.6080   253.0640 
 2355.0419 
  169.7190   256.5420 
 2355.1943 
  171.9080   260.5520 
 2355.3467 
  172.7890   256.4150 
 2355.4991 
  167.2370   247.5690 
 2355.6515 
  156.7250   235.2860 
 2355.8039 
  146.2120   223.0030 
 2355.9563 
  135.7330   210.7200 
 2356.1087 
  132.2210   203.1360 
 2356.2611 
  138.0650   209.0230 
 2356.4135 
  149.5150   221.3680 
 2356.5659 
  160.9660   242.7090 
 2356.7183 
  172.4160   263.8150 
 2356.8707 
  183.8840   272.8700 
 2357.0231 
  188.2200   279.2510 
 2357.1755 
  192.4410   284.5260 
 2357.3279 
  196.6630   289.8000 
 2357.4803 
  200.8840   295.0750 
 2357.6327 
  204.0260   300.3490 
 2357.7851 
  206.8370   305.6240 
