~Version Information
 VERS.                  2.0:   CWLS log ASCII Standard -VERSION 2.0
 WRAP.                  YES:   Multiple lines per depth step
~Well Information Block
#MNEM.UNIT       Data Type    Information
#---------     -----------    ---------------------------
 STRT.M                19.6596:
 STOP.M              2365.8623:
 STEP.M                 0.1524:
 NULL.               -999.2500:
 WELL-NAME.             CASN-1:  COMMON WELL NAME
 COMPANY.            ECOPETROL:  WELL OPERATOR
 FIELD-NAME.    CASTILLA NORTE:  FIELD
 COUN.                 ACACIAS:  COUNTY
 STAT.                    META:  STATE
 UWI .                CASN0001:  UWI
 CWN .                  CASN-1:  COMMON WELL NAME
 WELL.        CASTILLA NORTE-1:  WELL NAME
 LSRV.              PETROWORKS:  LOG NAME
 PASI.                    NONE:  LOG PASS ID
 PAST.                 UNKNOWN:  LOG PASS TYPE
 LATI.DEG             3.873520:  LATITUDE
 LONG.DEG           -73.628010:  LONGITUDE
 TD  .M            2392.684814:  TOTAL DEPTH
 RUN .                      -1:  LOG RUN NO
~Parameter Information Block
#MNEM.UNIT       Value        Description
#---------     -----------    ---------------------------
~Curve Information Block
#MNEM.UNIT                 API CODE     Curve Description
#---------               -----------    ---------------------------
 DEPTH.M                00 000 000 000:  Index Curve
 RS  .OHMM              00 000 000 000:  Resistivity; shallow
 RD  .OHMM              00 000 000 000:  Resistivity; deep
~A 
# ...
 1241.1481 
   13.7350    16.9860 
 1241.3005 
   12.8320    15.4220 
 1241.4529 
   11.8670    14.2120 
 1241.6053 
   10.9780    13.0630 
 1241.7577 
   10.2070    12.1680 
 1241.9101 
    9.8610    11.3070 
 1242.0625 
    9.5230    10.5160 
 1242.2149 
    9.1360     9.7650 
 1242.3673 
    8.6930     9.0820 
 1242.5197 
    8.2200     8.4670 
 1242.6721 
    7.9140     7.9740 
 1242.8245 
    7.5690     7.4810 
 1242.9769 
    7.2230     7.0020 
 1243.1293 
    6.9290     6.6150 
 1243.2817 
    6.7350     6.3770 
 1243.4341 
    6.6660     6.2060 
 1243.5865 
    6.5530     6.0180 
 1243.7389 
    6.4350     5.8700 
 1243.8913 
    6.3290     5.8550 
 1244.0437 
    6.3010     5.8380 
 1244.1961 
    6.2720     5.8650 
 1244.3485 
    6.2550     5.8970 
 1244.5009 
    6.4020     5.9390 
 1244.6533 
    6.5080     5.9970 
 1244.8057 
    6.6330     6.1120 
 1244.9581 
    6.7590     6.2170 
 1245.1105 
    6.8020     6.3370 
 1245.2629 
    6.8200     6.4570 
 1245.4153 
    6.8310     6.5370 
 1245.5677 
    6.8040     6.5370 
 1245.7201 
    6.7730     6.4740 
 1245.8725 
    6.6650     6.3820 
 1246.0249 
    6.5570     6.0550 
 1246.1773 
    6.3860     5.7100 
 1246.3297 
    6.2000     5.3690 
 1246.4821 
    6.0240     5.1680 
 1246.6345 
    5.7300     4.9770 
 1246.7869 
    5.5270     4.7860 
 1246.9393 
    5.3800     4.6020 
 1247.0917 
    5.2870     4.4560 
 1247.2441 
    5.2050     4.3180 
 1247.3965 
    5.1530     4.1390 
 1247.5489 
    5.0970     3.9790 
 1247.7013 
    5.0300     3.8460 
 1247.8537 
    4.9420     3.7140 
 1248.0061 
    4.8210     3.6650 
 1248.1585 
    4.7200     3.6210 
 1248.3109 
    4.6560     3.6390 
 1248.4633 
    4.7270     3.7020 
 1248.6157 
    4.8740     3.8480 
 1248.7681 
    5.1160     4.0740 
 1248.9205 
    5.6140     4.3800 
 1249.0729 
    6.1850     4.8650 
 1249.2253 
    6.6880     5.3460 
 1249.3777 
    7.0590     5.8820 
 1249.5301 
    7.3130     6.4590 
 1249.6825 
    7.5050     6.9260 
 1249.8349 
    7.6560     7.3170 
 1249.9873 
    7.7650     7.5560 
 1250.1397 
    7.8140     7.7740 
 1250.2921 
    7.8630     7.9100 
 1250.4445 
    7.9120     8.0430 
 1250.5969 
    7.9420     8.1030 
 1250.7493 
    7.8880     8.1610 
 1250.9017 
    7.8430     8.2180 
 1251.0541 
    7.9210     8.2730 
 1251.2065 
    7.9950     8.3280 
 1251.3589 
    8.0210     8.3830 
 1251.5113 
    8.0500     8.4390 
 1251.6637 
    8.1020     8.4950 
 1251.8161 
    8.1440     8.5260 
 1251.9685 
    8.1440     8.5470 
 1252.1209 
    8.1230     8.5640 
 1252.2733 
    8.0570     8.4660 
 1252.4257 
    7.9650     8.3340 
 1252.5781 
    7.8270     8.0450 
 1252.7305 
    7.5740     7.7550 
 1252.8829 
    7.3270     7.4590 
 1253.0353 
    7.0850     7.2410 
 1253.1877 
    6.8530     7.0190 
 1253.3401 
    6.6680     6.8550 
 1253.4925 
    6.5190     6.6950 
 1253.6449 
    6.4380     6.5200 
 1253.7973 
    6.3620     6.3400 
 1253.9497 
    6.2900     6.1870 
 1254.1021 
    6.2410     6.0940 
 1254.2545 
    6.1960     6.0000 
 1254.4069 
    6.1530     5.9070 
 1254.5593 
    6.0970     5.8050 
 1254.7117 
    6.0350     5.6980 
 1254.8641 
    5.9900     5.5910 
 1255.0165 
    5.9490     5.4830 
 1255.1689 
    5.8910     5.3010 
 1255.3213 
    5.8260     5.0850 
 1255.4737 
    5.6490     4.8860 
 1255.6261 
    5.4750     4.6800 
 1255.7785 
    5.3070     4.4160 
 1255.9309 
    5.1470     4.1970 
 1256.0833 
    4.9890     4.0550 
 1256.2357 
    4.8280     3.9540 
 1256.3881 
    4.7150     3.9930 
 1256.5405 
    4.7730     4.0510 
 1256.6929 
    4.9380     4.1530 
 1256.8453 
    5.1680     4.3050 
 1256.9977 
    5.5190     4.4740 
 1257.1501 
    5.8060     4.7250 
 1257.3025 
    5.9620     4.9940 
 1257.4549 
    6.0530     5.2880 
 1257.6073 
    6.0920     5.5460 
 1257.7597 
    6.1260     5.7870 
 1257.9121 
    6.1590     5.9490 
 1258.0645 
    6.1930     6.0350 
 1258.2169 
    6.2160     6.0620 
 1258.3693 
    6.1500     5.9860 
 1258.5217 
    6.1000     5.8650 
 1258.6741 
    5.9830     5.6710 
 1258.8265 
    5.8740     5.3080 
 1258.9789 
    5.7250     5.0260 
 1259.1313 
    5.5090     4.7410 
 1259.2837 
    5.2270     4.4540 
 1259.4361 
    4.9590     4.1960 
 1259.5885 
    4.7390     4.0010 
 1259.7409 
    4.5390     3.8480 
 1259.8933 
    4.4280     3.7330 
 1260.0457 
    4.4560     3.7140 
 1260.1981 
    4.5980     3.7790 
 1260.3505 
    4.8250     3.8880 
 1260.5029 
    5.0700     4.0040 
 1260.6553 
    5.3440     4.1110 
 1260.8077 
    5.4820     4.2230 
 1260.9601 
    5.4240     4.3220 
 1261.1125 
    5.2830     4.3450 
 1261.2649 
    5.1540     4.3550 
 1261.4173 
    5.0410     4.3730 
 1261.5697 
    4.9580     4.4650 
 1261.7221 
    4.9580     4.5970 
 1261.8745 
    5.0520     4.7490 
 1262.0269 
    5.4210     4.9280 
 1262.1793 
    6.0570     5.1240 
 1262.3317 
    6.3740     5.3830 
 1262.4841 
    6.5560     5.7350 
 1262.6365 
    6.7110     6.1770 
 1262.7889 
    6.7710     6.5460 
 1262.9413 
    6.8310     6.7450 
 1263.0937 
    6.8010     6.7880 
 1263.2461 
    6.7390     6.6750 
 1263.3985 
    6.6490     6.5510 
 1263.5509 
    6.5440     6.4310 
 1263.7033 
    6.4740     6.3210 
 1263.8557 
    6.4330     6.2330 
 1264.0081 
    6.3740     6.1770 
 1264.1605 
    6.4340     6.2480 
 1264.3129 
    6.5560     6.3740 
 1264.4653 
    6.8080     6.5300 
 1264.6177 
    6.9620     6.7120 
 1264.7701 
    7.0730     6.8490 
 1264.9225 
    7.1830     6.9310 
 1265.0749 
    7.1610     6.9600 
 1265.2273 
    7.1230     6.9350 
 1265.3797 
    7.0420     6.8940 
 1265.5321 
    6.9670     6.8210 
 1265.6845 
    6.8970     6.7460 
 1265.8369 
    6.8410     6.6690 
 1265.9893 
    6.7920     6.5970 
 1266.1417 
    6.7880     6.5370 
 1266.2941 
    6.7880     6.5370 
 1266.4465 
    6.8120     6.5480 
 1266.5989 
    6.8330     6.5900 
 1266.7513 
    6.8500     6.6370 
 1266.9037 
    6.8660     6.6980 
 1267.0561 
    6.8840     6.7600 
 1267.2085 
    6.9310     6.8280 
 1267.3609 
    6.9790     6.8960 
 1267.5133 
    7.0040     6.9620 
 1267.6657 
    6.9300     7.0040 
 1267.8181 
    6.8790     7.0240 
 1267.9705 
    6.8280     7.0490 
 1268.1229 
    6.7760     7.0490 
 1268.2753 
    6.7450     7.0490 
 1268.4277 
    6.7810     7.0790 
 1268.5801 
    6.9200     7.1070 
 1268.7325 
    7.0930     7.1380 
 1268.8849 
    7.1780     7.1220 
 1269.0373 
    7.2280     7.1050 
 1269.1897 
    7.1530     7.0670 
 1269.3421 
    7.0230     6.9730 
 1269.4945 
    6.8740     6.8740 
 1269.6469 
    6.6290     6.6680 
 1269.7993 
    6.3970     6.4510 
 1269.9517 
    6.1650     6.2540 
 1270.1041 
    6.0080     6.0610 
 1270.2565 
    5.8740     5.9730 
 1270.4089 
    5.8950     5.9490 
 1270.5613 
    5.9320     6.0440 
 1270.7137 
    6.0080     6.1580 
 1270.8661 
    6.0860     6.2770 
 1271.0185 
    6.1740     6.3960 
 1271.1709 
    6.2630     6.5160 
 1271.3233 
    6.3780     6.6360 
 1271.4757 
    6.4960     6.7580 
 1271.6281 
    6.6130     6.9020 
 1271.7805 
    6.7320     7.0460 
 1271.9329 
    6.8560     7.1940 
 1272.0853 
    6.9800     7.3460 
 1272.2377 
    7.1430     7.4870 
 1272.3901 
    7.3160     7.6010 
 1272.5425 
    7.4060     7.6970 
 1272.6949 
    7.4590     7.6650 
 1272.8473 
    7.3620     7.5290 
 1272.9997 
    7.2570     7.2280 
 1273.1521 
    7.1380     7.0310 
 1273.3045 
    6.9070     6.8310 
 1273.4569 
    6.6000     6.3710 
 1273.6093 
    6.2510     5.9040 
 1273.7617 
    5.9030     5.5660 
 1273.9141 
    5.5870     5.3740 
 1274.0665 
    5.3460     5.2030 
 1274.2189 
    5.2460     5.1160 
 1274.3713 
    5.3430     5.1530 
 1274.5237 
    5.5300     5.2970 
 1274.6761 
    6.0150     5.5370 
 1274.8285 
    6.4970     5.8160 
 1274.9809 
    6.8540     6.0920 
 1275.1334 
    7.0410     6.3380 
 1275.2858 
    7.1380     6.5090 
 1275.4382 
    6.9450     6.5370 
 1275.5906 
    6.5910     6.2860 
 1275.7430 
    6.2660     5.7530 
 1275.8954 
    5.9490     5.2190 
